[{"name": "Sagrada Fam\u00edlia", "city": "Birmingham", "lat": 52.416666666666664, "long": -1.9166666666666665, "category": "attraction", "emojis": "\ud83d\udc4c\ud83c\udfff"},
{"name": "Pla\u00e7a de Tetuan", "city": "Beijing", "lat": 39.916666666666664, "long": 116.41666666666667, "category": "attraction", "emojis": "\ud83d\udc4b\ud83c\udffd|\ud83d\udc4d\ud83c\udffc|\ud83e\udd20"},
{"name": "Sagrada Fam\u00edlia", "city": "Mecca", "lat": 21.483333333333334, "long": 39.75, "category": "attraction", "emojis": "\ud83d\udc4c\ud83c\udffd|\ud83d\ude01|\ud83d\udc4b\ud83c\udffb"},
{"name": "Bacoa Universitat", "city": "St. Petersburg", "lat": 59.93333333333333, "long": 30.3, "category": "restaurant", "emojis": "\ud83d\udc6b"},
{"name": "Milk Bar & Bistro Restaurant", "city": "Newcastle-on-Tyne", "lat": 54.96666666666667, "long": -1.6166666666666667, "category": "restaurant", "emojis": "\ud83d\udc8f|\ud83e\udd1e|\ud83d\udc4d\ud83c\udffb"},
{"name": "Vasi Restaurant", "city": "Birmingham", "lat": 52.416666666666664, "long": -1.9166666666666665, "category": "restaurant", "emojis": "\ud83e\udd20"},
{"name": "La Flauta", "city": "Brussels", "lat": 50.86666666666667, "long": 4.366666666666666, "category": "restaurant", "emojis": "\u2764\ufe0f|\ud83d\ude1c"},
{"name": "Alsur Caf\u00e9 (Palau)", "city": "Bombay", "lat": 19.0, "long": 72.8, "category": "restaurant", "emojis": "\ud83c\uddee\ud83c\uddf9|\ud83d\udc4c\ud83c\udffb|\ud83d\ude00"},
{"name": "Casa Mil\u00e0", "city": "Oslo", "lat": 59.95, "long": 10.7, "category": "attraction", "emojis": "\ud83d\ude43|\ud83d\udc4b\ud83c\udffd|\ud83d\ude1b"},
{"name": "Ic\u00e1ria Yelmo Cineplex", "city": "Athens", "lat": 37.96666666666667, "long": 23.716666666666665, "category": "attraction", "emojis": "\ud83d\ude19"},
{"name": "Dostrece Restaurant", "city": "Perth", "lat": -31.95, "long": 115.86666666666666, "category": "restaurant", "emojis": "\ud83e\udd1e"},
{"name": "Restaurante La Radio", "city": "Kuala Lumpur", "lat": 3.1333333333333333, "long": 101.7, "category": "restaurant", "emojis": "\ud83d\udc4c\ud83c\udffc|\ud83d\udc4d\ud83c\udffd|\ud83e\udd1f"},
{"name": "Pla\u00e7a de Catalunya", "city": "Dublin", "lat": 53.333333333333336, "long": -6.25, "category": "attraction", "emojis": "\ud83d\udc4d\ud83c\udfff|\ud83e\udd20|\ud83d\ude01"},
{"name": "Caravelle", "city": "Hamburg", "lat": 53.55, "long": 10.033333333333333, "category": "restaurant", "emojis": "\ud83d\udc8f"},
{"name": "Elsa y Fred", "city": "Warsaw", "lat": 52.233333333333334, "long": 21.0, "category": "restaurant", "emojis": "\ud83d\udc4b\ud83c\udfff|\ud83d\udc4c\ud83c\udffe"},
{"name": "Barcel\u00f3 Raval", "city": "Belfast", "lat": 54.61666666666667, "long": -5.933333333333334, "category": "restaurant", "emojis": "\ud83e\udd20|\ud83d\udc4d\ud83c\udffd|\ud83d\udc4c\ud83c\udffd"},
{"name": "Cervecer\u00eda Catalana", "city": "Nanjing (Nanking)", "lat": 32.05, "long": 118.88333333333334, "category": "restaurant", "emojis": "\ud83d\udc4d\ud83c\udfff|\ud83d\udc4b\ud83c\udffd"},
{"name": "Caravelle", "city": "Chihuahua", "lat": 28.616666666666667, "long": -106.08333333333333, "category": "restaurant", "emojis": "\ud83d\ude00|\ud83d\udc4d\ud83c\udffb|\ud83d\udc69"},
{"name": "Ciudad Condal", "city": "New Delhi", "lat": 28.583333333333332, "long": 77.2, "category": "restaurant", "emojis": "\ud83d\ude1c|\ud83d\udc4b\ud83c\udffc"},
{"name": "Bilbao Berria", "city": "Vladivostok", "lat": 43.166666666666664, "long": 132.0, "category": "restaurant", "emojis": "\ud83d\udc4c\ud83c\udffc|\ud83d\udc4d\ud83c\udffd|\ud83c\uddef\ud83c\uddf4"},
{"name": "Starbucks", "city": "Copenhagen", "lat": 55.666666666666664, "long": 12.566666666666666, "category": "restaurant", "emojis": "\ud83d\ude00"},
{"name": "Starbucks", "city": "Hobart", "lat": -42.86666666666667, "long": 147.31666666666666, "category": "restaurant", "emojis": "\ud83d\udc4c\ud83c\udffd|\ud83d\udc4b\ud83c\udffe"},
{"name": "Botafumeiro", "city": "Newcastle-on-Tyne", "lat": 54.96666666666667, "long": -1.6166666666666667, "category": "restaurant", "emojis": "\ud83d\ude43|\ud83d\udc4c\ud83c\udffe|\ud83d\ude00"},
{"name": "Restaurante El Mexicano de Arizala", "city": "New Delhi", "lat": 28.583333333333332, "long": 77.2, "category": "restaurant", "emojis": "\ud83d\udc4d\ud83c\udffb"},
{"name": "La Flauta", "city": "St. Petersburg", "lat": 59.93333333333333, "long": 30.3, "category": "restaurant", "emojis": "\ud83d\udc91"},
{"name": "Gran Bodega Salt\u00f3", "city": "S\u00e3o Paulo", "lat": -23.516666666666666, "long": -46.516666666666666, "category": "restaurant", "emojis": "\ud83d\udc4b\ud83c\udffe|\ud83e\udd20"},
{"name": "Casa Amatller", "city": "Melbourne", "lat": -37.78333333333333, "long": 144.96666666666667, "category": "attraction", "emojis": "\ud83d\udc4d\ud83c\udffb"},
{"name": "Barcelona Bus Tur\u00edstic", "city": "Tripoli", "lat": 32.95, "long": 13.2, "category": "poi", "emojis": "\ud83d\udc4d\ud83c\udffd|\ud83d\ude1a|\ud83d\udc4b\ud83c\udffd"},
{"name": "Bar El Vel\u00f3dromo", "city": "Chongqing", "lat": 29.766666666666666, "long": 106.56666666666666, "category": "restaurant", "emojis": "\ud83d\udc91|\ud83d\udc4c\ud83c\udffd"},
{"name": "Centre Comercial Arenas de Barcelona", "city": "Stockholm", "lat": 59.28333333333333, "long": 18.05, "category": "attraction", "emojis": "\ud83d\ude43|\ud83d\udc4c\ud83c\udffe"},
{"name": "Bar Ca\u00f1ete", "city": "Nanjing (Nanking)", "lat": 32.05, "long": 118.88333333333334, "category": "restaurant", "emojis": "\ud83d\udc4b\ud83c\udffb"},
{"name": "Cervecer\u00eda Catalana", "city": "Amsterdam", "lat": 52.36666666666667, "long": 4.883333333333333, "category": "restaurant", "emojis": "\ud83d\udc4b\ud83c\udffb|\ud83d\udc4d\ud83c\udffd|\ud83d\udc4b\ud83c\udffe"},
{"name": "Restaurant Barceloneta", "city": "Copenhagen", "lat": 55.666666666666664, "long": 12.566666666666666, "category": "restaurant", "emojis": "\ud83d\udc4b\ud83c\udffe|\ud83d\ude01|\ud83d\udc91"},
{"name": "Parc G\u00fcell", "city": "Moscow", "lat": 55.75, "long": 37.6, "category": "attraction", "emojis": "\ud83d\udc4b\ud83c\udffd|\u270b"},
{"name": "Pitarra", "city": "Z\u00fcrich", "lat": 47.35, "long": 8.516666666666667, "category": "restaurant", "emojis": "\ud83d\ude00|\ud83d\ude18|\ud83e\udd20"},
{"name": "Sagrada Fam\u00edlia", "city": "Marseilles", "lat": 43.333333333333336, "long": 5.333333333333333, "category": "attraction", "emojis": "\ud83d\ude18"},
{"name": "UDON Arenas", "city": "Bogot\u00e1", "lat": 4.533333333333333, "long": -74.25, "category": "restaurant", "emojis": "\ud83c\udff7|\ud83d\udc4b\ud83c\udffc|\ud83d\ude19"},
{"name": "Ciudad Condal", "city": "Glasgow", "lat": 55.833333333333336, "long": -4.25, "category": "restaurant", "emojis": "\ud83d\udc4c\ud83c\udffd"},
{"name": "Cup and Cake", "city": "Manchester", "lat": 53.5, "long": -2.25, "category": "restaurant", "emojis": "\ud83d\udc4d\ud83c\udffe|\ud83d\ude1a|\ud83d\ude44"},
{"name": "7 Portes", "city": "Prague", "lat": 50.083333333333336, "long": 14.433333333333334, "category": "restaurant", "emojis": "\ud83e\udd1e|\ud83d\udc90|\ud83d\udc4b\ud83c\udffc"},
{"name": "La Candela", "city": "Bangkok", "lat": 13.75, "long": 100.5, "category": "restaurant", "emojis": "\ud83d\udc4d\ud83c\udffb|\u270c\ufe0f|\ud83d\udc4d\ud83c\udffd"},
{"name": "Bangkok Cafe", "city": "Tripoli", "lat": 32.95, "long": 13.2, "category": "restaurant", "emojis": "\ud83d\udc4b\ud83c\udffd|\ud83d\udc4d\ud83c\udffb|\ud83d\udc8f"},
{"name": "Restaurante La Pepita", "city": "Newcastle-on-Tyne", "lat": 54.96666666666667, "long": -1.6166666666666667, "category": "restaurant", "emojis": "\ud83d\udc4b\ud83c\udffb"},
{"name": "Montju\u00efc Castle", "city": "Santiago", "lat": -33.46666666666667, "long": -70.75, "category": "attraction", "emojis": "\ud83e\udd1f|\ud83d\udc76|\ud83c\udf5f"},
{"name": "Cervecer\u00eda Catalana", "city": "Darwin", "lat": -12.466666666666667, "long": 130.85, "category": "restaurant", "emojis": "\ud83e\udd19"},
{"name": "Botafumeiro", "city": "Hobart", "lat": -42.86666666666667, "long": 147.31666666666666, "category": "restaurant", "emojis": "\ud83d\ude1b"},
{"name": "Sandwich & Friends", "city": "Caracas", "lat": 10.466666666666667, "long": -67.03333333333333, "category": "restaurant", "emojis": "\ud83d\udc55|\ud83d\ude00"},
{"name": "The George Payne Irish Bar", "city": "C\u00f3rdoba", "lat": -31.466666666666665, "long": -64.16666666666667, "category": "restaurant", "emojis": "\ud83d\ude43|\ud83d\udc4b\ud83c\udffd|\ud83e\udd19"},
{"name": "Pla\u00e7a Reial", "city": "Vladivostok", "lat": 43.166666666666664, "long": 132.0, "category": "attraction", "emojis": "\ud83d\udec5|\ud83d\udd17|\ud83d\udc4c\ud83c\udffe"},
{"name": "WYSTC Volunteer Session", "city": "Moscow", "lat": 55.75, "long": 37.6, "category": "poi", "emojis": "\ud83d\ude1c|\ud83d\ude42"},
{"name": "Quimet d'Horta", "city": "Kinshasa", "lat": -4.3, "long": 15.283333333333333, "category": "restaurant", "emojis": "\ud83d\udc4b\ud83c\udffd|\ud83d\ude43|\ud83d\ude1a"},
{"name": "Tramonti 1980", "city": "Rangoon", "lat": 16.833333333333332, "long": 96.0, "category": "restaurant", "emojis": "\ud83e\udd19"},
{"name": "Bar Lobo", "city": "Guatemala City", "lat": 14.616666666666667, "long": -90.51666666666667, "category": "restaurant", "emojis": "\ud83d\udc4d\ud83c\udffe"},
{"name": "Tapas 24", "city": "Ankara", "lat": 39.916666666666664, "long": 32.916666666666664, "category": "restaurant", "emojis": "\u270b|\ud83d\udc91|\ud83d\udc4d\ud83c\udffe"},
{"name": "La Panxa del Bisbe", "city": "Hammerfest", "lat": 70.63333333333334, "long": 23.633333333333333, "category": "restaurant", "emojis": "\ud83d\udc4d\ud83c\udffb|\ud83d\udc4d\ud83c\udffe|\ud83d\udeb2"},
{"name": "MarisCO", "city": "Reykjav\u00edk", "lat": 64.06666666666666, "long": -21.966666666666665, "category": "restaurant", "emojis": "\ud83d\udd07|\ud83d\ude18|\ud83d\udc4d\ud83c\udffd"},
{"name": "Flamant", "city": "Kuala Lumpur", "lat": 3.1333333333333333, "long": 101.7, "category": "restaurant", "emojis": "\ud83c\udf36\ufe0f"},
{"name": "Dostrece Restaurant", "city": "Edinburgh", "lat": 55.916666666666664, "long": -3.1666666666666665, "category": "restaurant", "emojis": "\ud83e\udd20|\ud83d\ude1b"},
{"name": "Casa Amatller", "city": "Odessa", "lat": 46.45, "long": 30.8, "category": "attraction", "emojis": "\ud83e\udd1e|\ud83d\ude44|\ud83d\ude44"},
{"name": "Kibuka", "city": "Melbourne", "lat": -37.78333333333333, "long": 144.96666666666667, "category": "restaurant", "emojis": "\ud83d\udc4c\ud83c\udfff"},
{"name": "Kiosko", "city": "Kinshasa", "lat": -4.3, "long": 15.283333333333333, "category": "restaurant", "emojis": "\ud83c\udfdc|\ud83e\udd1f"},
{"name": "Quimet & Quimet", "city": "Osaka", "lat": 34.53333333333333, "long": 135.5, "category": "restaurant", "emojis": "\ud83d\udc4b\ud83c\udffe"},
{"name": "Tez Tour Barcelona", "city": "Adelaide", "lat": -34.916666666666664, "long": 138.6, "category": "poi", "emojis": "\ud83e\udd1e|\ud83d\udc4b\ud83c\udffc"},
{"name": "Pans & Company", "city": "Rome", "lat": 41.9, "long": 12.45, "category": "restaurant", "emojis": "\ud83d\udc4c\ud83c\udffe|\u270b"},
{"name": "Restaurant La Poma", "city": "Irkutsk", "lat": 52.5, "long": 104.33333333333333, "category": "restaurant", "emojis": "\ud83d\udc4d\ud83c\udfff|\ud83d\ude00"},
{"name": "El Rey de la Gamba", "city": "Madrid", "lat": 40.43333333333333, "long": -3.7, "category": "restaurant", "emojis": "\ud83d\ude19|\ud83d\ude1b|\ud83d\ude43"},
{"name": "Centre Comercial Arenas de Barcelona", "city": "Glasgow", "lat": 55.833333333333336, "long": -4.25, "category": "attraction", "emojis": "\u270b"},
{"name": "Restaurante Bacoa", "city": "Bangkok", "lat": 13.75, "long": 100.5, "category": "restaurant", "emojis": "\ud83d\udc4d\ud83c\udffe|\ud83e\udd1f|\ud83d\udc8f"},
{"name": "Cervecer\u00eda Catalana", "city": "Belfast", "lat": 54.61666666666667, "long": -5.933333333333334, "category": "restaurant", "emojis": "\ud83d\udc4d\ud83c\udffc|\ud83d\udc4c\ud83c\udffb|\ud83d\udc4c\ud83c\udffb"},
{"name": "Casa Amatller", "city": "Milan", "lat": 45.45, "long": 9.166666666666666, "category": "attraction", "emojis": "\ud83e\udd19|\ud83d\udc4d\ud83c\udffe"},
{"name": "Alsur Caf\u00e9 (El Born)", "city": "Singapore", "lat": 1.2333333333333334, "long": 103.91666666666667, "category": "restaurant", "emojis": "\ud83d\ude00"},
{"name": "Palau de la M\u00fasica Catalana", "city": "Vienna", "lat": 48.233333333333334, "long": 16.333333333333332, "category": "attraction", "emojis": "\ud83d\udc4c\ud83c\udffb|\u2764\ufe0f"},
{"name": "Montju\u00efc Castle", "city": "Guatemala City", "lat": 14.616666666666667, "long": -90.51666666666667, "category": "attraction", "emojis": "\ud83d\ude00"},
{"name": "7 Portes", "city": "Nanjing (Nanking)", "lat": 32.05, "long": 118.88333333333334, "category": "restaurant", "emojis": "\ud83d\udc4d\ud83c\udffd"},
{"name": "Mirablau", "city": "New Delhi", "lat": 28.583333333333332, "long": 77.2, "category": "restaurant", "emojis": "\ud83e\udd19|\ud83e\udd1f"},
{"name": "Cantina Machito", "city": "Athens", "lat": 37.96666666666667, "long": 23.716666666666665, "category": "restaurant", "emojis": "\ud83d\ude18|\ud83d\udc8f"},
{"name": "Dostrece Restaurant", "city": "Reykjav\u00edk", "lat": 64.06666666666666, "long": -21.966666666666665, "category": "restaurant", "emojis": "\ud83d\udc8f|\ud83d\udc4d\ud83c\udffe"},
{"name": "Picnic Restaurant", "city": "Lima", "lat": -12.0, "long": -77.03333333333333, "category": "restaurant", "emojis": "\ud83d\udc4c\ud83c\udffe|\ud83d\udc86|\ud83d\ude01"},
{"name": "Top Tapas Restaurant", "city": "Perth", "lat": -31.95, "long": 115.86666666666666, "category": "restaurant", "emojis": "\ud83d\ude00|\ud83d\ude43"},
{"name": "Bestial", "city": "Chihuahua", "lat": 28.616666666666667, "long": -106.08333333333333, "category": "restaurant", "emojis": "\ud83d\ude18|\ud83d\ude1b"},
{"name": "Rosa del Raval Restaurant", "city": "Barcelona", "lat": 41.38333333333333, "long": 2.15, "category": "restaurant", "emojis": "\ud83d\udc8f|\ud83d\udc4d\ud83c\udffe"},
{"name": "Braseria El Glop Restaurant", "city": "Stockholm", "lat": 59.28333333333333, "long": 18.05, "category": "restaurant", "emojis": "\ud83d\udca6"},
{"name": "UDON Glories", "city": "Copenhagen", "lat": 55.666666666666664, "long": 12.566666666666666, "category": "restaurant", "emojis": "\ud83d\ude19"},
{"name": "Cantina Machito", "city": "Berlin", "lat": 52.5, "long": 13.416666666666666, "category": "restaurant", "emojis": "\ud83d\ude1c|\ud83e\udd19|\ud83d\udc4b\ud83c\udfff"},
{"name": "Rosal 34", "city": "Madrid", "lat": 40.43333333333333, "long": -3.7, "category": "restaurant", "emojis": "\ud83d\udc4d\ud83c\udffb|\ud83c\udf36\ufe0f"},
{"name": "ABaC Restaurant & Hotel", "city": "Mazatl\u00e1n", "lat": 23.2, "long": -106.41666666666667, "category": "restaurant", "emojis": "\ud83c\udfb7"},
{"name": "Marisa", "city": "Paramaribo", "lat": 5.75, "long": -55.25, "category": "restaurant", "emojis": "\ud83e\udd19|\ud83d\ude19|\ud83d\udc4c\ud83c\udffc"},
{"name": "bar seco", "city": "Bucharest", "lat": 44.416666666666664, "long": 26.116666666666667, "category": "restaurant", "emojis": "\ud83d\ude19"},
{"name": "Buenas Migas", "city": "Marseilles", "lat": 43.333333333333336, "long": 5.333333333333333, "category": "restaurant", "emojis": "\ud83d\udc4b\ud83c\udffc"},
{"name": "Caf\u00e9 Zurich", "city": "Leeds", "lat": 53.75, "long": -1.5, "category": "restaurant", "emojis": "\ud83d\udc4d\ud83c\udffd|\ud83d\ude42|\ud83d\udc4b\ud83c\udffd"},
{"name": "La Fonda del Port Ol\u00edmpic", "city": "Budapest", "lat": 47.5, "long": 19.083333333333332, "category": "restaurant", "emojis": "\ud83d\ude1b|\ud83c\udf36\ufe0f"},
{"name": "Lolita Taperia", "city": "Helsinki", "lat": 60.166666666666664, "long": 25.0, "category": "restaurant", "emojis": "\ud83d\ude43"},
{"name": "Il Golfo Di Napoli Restaurant", "city": "Lima", "lat": -12.0, "long": -77.03333333333333, "category": "restaurant", "emojis": "\ud83d\ude19"},
{"name": "Can Paixano", "city": "C\u00f3rdoba", "lat": -31.466666666666665, "long": -64.16666666666667, "category": "restaurant", "emojis": "\ud83d\udc4c\ud83c\udffd"},
{"name": "Kiosko", "city": "Lyons", "lat": 45.75, "long": 4.833333333333333, "category": "restaurant", "emojis": "\ud83d\udc4d\ud83c\udfff|\ud83c\udf84|\ud83d\ude1c"},
{"name": "Razzmatazz", "city": "Rio de Janeiro", "lat": -22.95, "long": -43.2, "category": "attraction", "emojis": "\ud83d\ude42|\ud83d\udc4c\ud83c\udffb|\ud83d\udc4c\ud83c\udfff"},
{"name": "La Cigale", "city": "Frankfurt", "lat": 50.11666666666667, "long": 8.683333333333334, "category": "restaurant", "emojis": "\ud83c\udf36\ufe0f"},
{"name": "Avenue Bar", "city": "Nairobi", "lat": -1.4166666666666667, "long": 36.916666666666664, "category": "restaurant", "emojis": "\ud83d\ude19|\ud83d\udc4c\ud83c\udffb"},
{"name": "LLamber", "city": "Hobart", "lat": -42.86666666666667, "long": 147.31666666666666, "category": "restaurant", "emojis": "\ud83e\udd1f|\ud83d\udcd6|\ud83d\udc8f"},
{"name": "Restaurante Tapa Tapa", "city": "Teheran", "lat": 35.75, "long": 51.75, "category": "restaurant", "emojis": "\ud83d\udc91|\ud83d\ude1c"},
{"name": "URA Restaurant & Lounge", "city": "Nanjing (Nanking)", "lat": 32.05, "long": 118.88333333333334, "category": "restaurant", "emojis": "\u270c\ufe0f|\ud83e\udd1e"},
{"name": "Vinet", "city": "Newcastle-on-Tyne", "lat": 54.96666666666667, "long": -1.6166666666666667, "category": "restaurant", "emojis": "\ud83d\ude42|\ud83d\ude43|\ud83d\udc4c\ud83c\udffd"},
{"name": "Starbucks", "city": "St. Petersburg", "lat": 59.93333333333333, "long": 30.3, "category": "restaurant", "emojis": "\ud83d\udc4d\ud83c\udffe|\ud83d\udc4b\ud83c\udffb"},
{"name": "Museu de la Xocolata", "city": "Mexico City", "lat": 19.433333333333334, "long": -99.11666666666666, "category": "attraction", "emojis": "\u2764\ufe0f|\ud83d\ude4c"},
{"name": "Bikini", "city": "Rome", "lat": 41.9, "long": 12.45, "category": "attraction", "emojis": "\ud83e\udd19"},
{"name": "Restaurant Mart\u00ednez", "city": "London", "lat": 51.53333333333333, "long": -0.08333333333333333, "category": "restaurant", "emojis": "\ud83d\ude42"},
{"name": "Milk Bar & Bistro Restaurant", "city": "Birmingham", "lat": 52.416666666666664, "long": -1.9166666666666665, "category": "restaurant", "emojis": "\u270c\ufe0f|\ud83e\udd19"},
{"name": "Happy Bar & Grill Restaurant", "city": "Lima", "lat": -12.0, "long": -77.03333333333333, "category": "restaurant", "emojis": "\ud83d\udc4b\ud83c\udffb|\ud83e\udd20"},
{"name": "Biz Bcn 2013", "city": "Cayenne", "lat": 4.816666666666666, "long": -52.3, "category": "poi", "emojis": "\ud83d\ude00"},
{"name": "Paco Meralgo", "city": "Munich", "lat": 48.13333333333333, "long": 11.583333333333334, "category": "restaurant", "emojis": "\ud83d\ude1c"},
{"name": "Costa Gallega", "city": "Tokyo", "lat": 35.666666666666664, "long": 139.75, "category": "restaurant", "emojis": "\ud83d\udc4c\ud83c\udfff|\ud83d\ude00"},
{"name": "Marsella", "city": "Sydney", "lat": -34.0, "long": 151.0, "category": "restaurant", "emojis": "\ud83c\udfb6|\u270c\ufe0f"},
{"name": "Parc G\u00fcell", "city": "Plymouth", "lat": 50.416666666666664, "long": -4.083333333333333, "category": "attraction", "emojis": "\ud83d\udc4d\ud83c\udfff|\ud83d\udc4b\ud83c\udffb"},
{"name": "Xiringuito Escrib\u00e0", "city": "Rangoon", "lat": 16.833333333333332, "long": 96.0, "category": "restaurant", "emojis": "\ud83e\udd1f|\ud83d\udc4c\ud83c\udffb|\ud83d\udc4d\ud83c\udffe"},
{"name": "Can Travi Nou", "city": "Nagoya", "lat": 35.11666666666667, "long": 136.93333333333334, "category": "restaurant", "emojis": "\ud83e\udd19|\ud83d\udc91"},
{"name": "Palau de la Virreina", "city": "C\u00f3rdoba", "lat": -31.466666666666665, "long": -64.16666666666667, "category": "poi", "emojis": "\ud83d\ude44"},
{"name": "Maybe Barcelona", "city": "New Delhi", "lat": 28.583333333333332, "long": 77.2, "category": "attraction", "emojis": "\ud83d\udc4c\ud83c\udfff|\ud83d\udd2c"},
{"name": "Sagrada Fam\u00edlia", "city": "Melbourne", "lat": -37.78333333333333, "long": 144.96666666666667, "category": "attraction", "emojis": "\ud83e\udd1f"},
{"name": "Casa Amatller", "city": "Lyons", "lat": 45.75, "long": 4.833333333333333, "category": "attraction", "emojis": "\ud83d\udc4d\ud83c\udffb"},
{"name": "Cinemateca", "city": "Nagasaki", "lat": 32.8, "long": 129.95, "category": "restaurant", "emojis": "\ud83d\ude18|\ud83d\ude19"},
{"name": "Veggie Garden", "city": "Caracas", "lat": 10.466666666666667, "long": -67.03333333333333, "category": "restaurant", "emojis": "\ud83d\udc4d\ud83c\udffb|\ud83d\ude44"},
{"name": "Elsa y Fred", "city": "Bucharest", "lat": 44.416666666666664, "long": 26.116666666666667, "category": "restaurant", "emojis": "\ud83c\udf81"},
{"name": "federal caf\u00e9", "city": "Auckland", "lat": -36.86666666666667, "long": 174.75, "category": "restaurant", "emojis": "\ud83d\udc91"},
{"name": "De Tapa Madre Restaurant", "city": "Copenhagen", "lat": 55.666666666666664, "long": 12.566666666666666, "category": "restaurant", "emojis": "\ud83d\ude01|\ud83d\udc4c\ud83c\udffd"},
{"name": "La Singular", "city": "New Delhi", "lat": 28.583333333333332, "long": 77.2, "category": "restaurant", "emojis": "\ud83c\udf36\ufe0f|\ud83d\ude1c"},
{"name": "Kiosko", "city": "Milan", "lat": 45.45, "long": 9.166666666666666, "category": "restaurant", "emojis": "\u270c\ufe0f|\ud83d\ude1b|\u2764\ufe0f"},
{"name": "La Barca del Salamanca", "city": "Georgetown", "lat": 6.75, "long": -58.25, "category": "restaurant", "emojis": "\ud83d\udc4c\ud83c\udfff|\ud83d\udecb"},
{"name": "CDLC", "city": "S\u00e3o Paulo", "lat": -23.516666666666666, "long": -46.516666666666666, "category": "restaurant", "emojis": "\ud83d\udc7f|\ud83d\udc4d\ud83c\udffb|\u2764\ufe0f"},
{"name": "La Bella Napoli", "city": "Helsinki", "lat": 60.166666666666664, "long": 25.0, "category": "restaurant", "emojis": "\ud83e\udd1e|\ud83d\udc4b\ud83c\udfff|\ud83e\udd1f"},
{"name": "Alsur Caf\u00e9 (Palau)", "city": "Vladivostok", "lat": 43.166666666666664, "long": 132.0, "category": "restaurant", "emojis": "\ud83d\udc4d\ud83c\udfff|\ud83d\ude1a"},
{"name": "Cup and Cake", "city": "London", "lat": 51.53333333333333, "long": -0.08333333333333333, "category": "restaurant", "emojis": "\ud83d\ude44"},
{"name": "La Flauta", "city": "Tokyo", "lat": 35.666666666666664, "long": 139.75, "category": "restaurant", "emojis": "\ud83e\udd19"},
{"name": "Centre Comercial Arenas de Barcelona", "city": "Mazatl\u00e1n", "lat": 23.2, "long": -106.41666666666667, "category": "attraction", "emojis": "\ud83d\udc4d\ud83c\udfff|\ud83d\udc4d\ud83c\udffe"},
{"name": "Euskal Etxea (Restaurant)", "city": "Stockholm", "lat": 59.28333333333333, "long": 18.05, "category": "restaurant", "emojis": "\ud83d\udc4b\ud83c\udfff"},
{"name": "Divina Pedralbes Pizzeria", "city": "Teheran", "lat": 35.75, "long": 51.75, "category": "restaurant", "emojis": "\ud83d\udc4c\ud83c\udffb|\ud83d\ude19"},
{"name": "Botafumeiro", "city": "Athens", "lat": 37.96666666666667, "long": 23.716666666666665, "category": "restaurant", "emojis": "\ud83d\udc4c\ud83c\udffd|\ud83c\udf36\ufe0f|\ud83d\udc4d\ud83c\udffc"},
{"name": "Caixaforum", "city": "Newcastle-on-Tyne", "lat": 54.96666666666667, "long": -1.6166666666666667, "category": "attraction", "emojis": "\ud83d\udc4c\ud83c\udffd|\ud83d\ude1a"},
{"name": "La Taqueria", "city": "Calcutta", "lat": 22.566666666666666, "long": 88.4, "category": "restaurant", "emojis": "\ud83d\udc8f"},
{"name": "Jamboree", "city": "Reykjav\u00edk", "lat": 64.06666666666666, "long": -21.966666666666665, "category": "attraction", "emojis": "\u2764\ufe0f"},
{"name": "Central Cafe", "city": "Rome", "lat": 41.9, "long": 12.45, "category": "restaurant", "emojis": "\ud83d\ude42|\u2764\ufe0f"},
{"name": "Paso de Zebra festival", "city": "La Paz", "lat": -16.45, "long": -68.36666666666666, "category": "attraction", "emojis": "\ud83d\udc91"},
{"name": "Kahala", "city": "Hong Kong", "lat": 22.333333333333332, "long": 114.18333333333334, "category": "restaurant", "emojis": "\ud83d\ude43"},
{"name": "Infussion Bar", "city": "Buenos Aires", "lat": -34.583333333333336, "long": -58.36666666666667, "category": "restaurant", "emojis": "\ud83e\udd1e"},
{"name": "Piscolabis", "city": "Belfast", "lat": 54.61666666666667, "long": -5.933333333333334, "category": "restaurant", "emojis": "\ud83d\ude1a|\ud83d\udebb|\ud83d\udc4b\ud83c\udfff"},
{"name": "Centro de Cultura Contempor\u00e1nea de Barcelona", "city": "Belfast", "lat": 54.61666666666667, "long": -5.933333333333334, "category": "attraction", "emojis": "\ud83d\ude1a"},
{"name": "Bestial", "city": "Venice", "lat": 45.43333333333333, "long": 12.333333333333334, "category": "restaurant", "emojis": "\ud83d\ude43|\ud83e\udd20|\ud83d\udc4d\ud83c\udffc"},
{"name": "Sagrada Fam\u00edlia", "city": "Belgrade", "lat": 44.86666666666667, "long": 20.533333333333335, "category": "attraction", "emojis": "\ud83d\udd1d"},
{"name": "Buenas Migas", "city": "Moscow", "lat": 55.75, "long": 37.6, "category": "restaurant", "emojis": "\ud83d\ude1c|\ud83d\ude01"},
{"name": "Restaurant La Poma", "city": "Nairobi", "lat": -1.4166666666666667, "long": 36.916666666666664, "category": "restaurant", "emojis": "\ud83d\udc4d\ud83c\udffb"},
{"name": "Taverna del Bisbe", "city": "Athens", "lat": 37.96666666666667, "long": 23.716666666666665, "category": "restaurant", "emojis": "\u270c\ufe0f|\ud83e\udd20"},
{"name": "Marsella", "city": "Hamburg", "lat": 53.55, "long": 10.033333333333333, "category": "restaurant", "emojis": "\ud83d\ude19"},
{"name": "Mobile World Centre", "city": "Madrid", "lat": 40.43333333333333, "long": -3.7, "category": "poi", "emojis": "\ud83d\udc4c\ud83c\udffe|\ud83d\udc4c\ud83c\udffb"},
{"name": "La Flauta", "city": "Kinshasa", "lat": -4.3, "long": 15.283333333333333, "category": "restaurant", "emojis": "\ud83d\udc4c\ud83c\udfff|\ud83d\udc4d\ud83c\udffc|\ud83d\udc4d\ud83c\udffb"},
{"name": "Mirablau", "city": "Prague", "lat": 50.083333333333336, "long": 14.433333333333334, "category": "restaurant", "emojis": "\ud83d\udc4b\ud83c\udffe|\ud83d\udc4c\ud83c\udffd|\ud83d\udc4c\ud83c\udffb"},
{"name": "Barcelona Zoo", "city": "Caracas", "lat": 10.466666666666667, "long": -67.03333333333333, "category": "attraction", "emojis": "\ud83d\ude42|\ud83d\udc4b\ud83c\udffe|\u2764\ufe0f"},
{"name": "Piscolabis", "city": "Mexico City", "lat": 19.433333333333334, "long": -99.11666666666666, "category": "restaurant", "emojis": "\ud83c\udf52"},
{"name": "Mobile World Centre", "city": "Helsinki", "lat": 60.166666666666664, "long": 25.0, "category": "poi", "emojis": "\ud83d\udc4c\ud83c\udffd|\ud83d\udc4d\ud83c\udffb"},
{"name": "Alsur Caf\u00e9 (El Born)", "city": "Budapest", "lat": 47.5, "long": 19.083333333333332, "category": "restaurant", "emojis": "\ud83d\udc51|\ud83d\ude8c|\ud83d\ude00"},
{"name": "SMS Del\u00edcies", "city": "Melbourne", "lat": -37.78333333333333, "long": 144.96666666666667, "category": "restaurant", "emojis": "\ud83d\ude00"},
{"name": "Parc de la Ciutadella", "city": "Nanjing (Nanking)", "lat": 32.05, "long": 118.88333333333334, "category": "attraction", "emojis": "\ud83d\ude00|\ud83d\ude43"},
{"name": "Toyo", "city": "Panama City", "lat": 8.966666666666667, "long": -79.53333333333333, "category": "restaurant", "emojis": "\ud83d\ude01|\ud83d\ude18"},
{"name": "El Rey de la Gamba", "city": "Sofia", "lat": 42.666666666666664, "long": 23.333333333333332, "category": "restaurant", "emojis": "\ud83d\udc4d\ud83c\udffb|\ud83d\udc4b\ud83c\udffb|\ud83d\ude44"},
{"name": "El Rey de la Gamba", "city": "Jakarta", "lat": -6.266666666666667, "long": 106.8, "category": "restaurant", "emojis": "\ud83d\ude00|\ud83e\udd1e"},
{"name": "federal caf\u00e9", "city": "Z\u00fcrich", "lat": 47.35, "long": 8.516666666666667, "category": "restaurant", "emojis": "\ud83d\udc8f|\ud83d\ude1b|\u270b"},
{"name": "Barcel\u00f3 Raval", "city": "Budapest", "lat": 47.5, "long": 19.083333333333332, "category": "restaurant", "emojis": "\ud83d\udc4c\ud83c\udffc|\ud83e\udd20|\ud83d\udc4b\ud83c\udffb"},
{"name": "Heliport Cathelicopters", "city": "Z\u00fcrich", "lat": 47.35, "long": 8.516666666666667, "category": "poi", "emojis": "\u270b|\ud83d\ude43"},
{"name": "Funicular del Tibidabo", "city": "Hamburg", "lat": 53.55, "long": 10.033333333333333, "category": "accommodation", "emojis": "\ud83d\udc8f"},
{"name": "Caravelle", "city": "Newcastle-on-Tyne", "lat": 54.96666666666667, "long": -1.6166666666666667, "category": "restaurant", "emojis": "\ud83d\udc4d\ud83c\udffb"},
{"name": "Pla\u00e7a Reial", "city": "Warsaw", "lat": 52.233333333333334, "long": 21.0, "category": "attraction", "emojis": "\ud83d\udc4d\ud83c\udffb|\ud83d\udc4d\ud83c\udffd|\ud83d\ude1a"},
{"name": "Bilbao", "city": "Havana", "lat": 23.133333333333333, "long": -82.38333333333334, "category": "restaurant", "emojis": "\ud83d\udc4c\ud83c\udffc"},
{"name": "Sandwich & Friends", "city": "Rangoon", "lat": 16.833333333333332, "long": 96.0, "category": "restaurant", "emojis": "\ud83d\udc4b\ud83c\udfff|\ud83c\uddf5\ud83c\uddf9|\ud83d\udc4d\ud83c\udffb"},
{"name": "Can Paixano", "city": "Lyons", "lat": 45.75, "long": 4.833333333333333, "category": "restaurant", "emojis": "\ud83d\udc8f|\ud83d\udc4d\ud83c\udffb"},
{"name": "Casa Mil\u00e0", "city": "Aberdeen", "lat": 57.15, "long": -2.15, "category": "attraction", "emojis": "\ud83d\udc4d\ud83c\udffe"},
{"name": "The RoomService", "city": "Shanghai", "lat": 31.166666666666668, "long": 121.46666666666667, "category": "restaurant", "emojis": "\ud83d\ude18|\ud83d\udc4d\ud83c\udffb|\ud83d\udc4b\ud83c\udffd"},
{"name": "Sagrada Fam\u00edlia", "city": "Z\u00fcrich", "lat": 47.35, "long": 8.516666666666667, "category": "attraction", "emojis": "\ud83d\ude18|\ud83c\udf36\ufe0f|\u270c\ufe0f"},
{"name": "Los Caracoles", "city": "London", "lat": 51.53333333333333, "long": -0.08333333333333333, "category": "restaurant", "emojis": "\ud83d\udc4b\ud83c\udffc|\ud83d\udc4b\ud83c\udffc"},
{"name": "Pura Brasa", "city": "Adelaide", "lat": -34.916666666666664, "long": 138.6, "category": "restaurant", "emojis": "\ud83c\uddee\ud83c\uddf3"},
{"name": "federal caf\u00e9", "city": "Bristol", "lat": 51.46666666666667, "long": -2.5833333333333335, "category": "restaurant", "emojis": "\ud83d\udc4b\ud83c\udffb"},
{"name": "Thai Gardens", "city": "Nagasaki", "lat": 32.8, "long": 129.95, "category": "restaurant", "emojis": "\ud83d\udc4b\ud83c\udffb|\ud83d\udc8f|\ud83e\udd20"},
{"name": "Los Caracoles", "city": "Adelaide", "lat": -34.916666666666664, "long": 138.6, "category": "restaurant", "emojis": "\ud83e\udd20"},
{"name": "Montju\u00efc Castle", "city": "London", "lat": 51.53333333333333, "long": -0.08333333333333333, "category": "attraction", "emojis": "\ud83d\ude01"},
{"name": "Barcelona Museum of Contemporary Art", "city": "Belgrade", "lat": 44.86666666666667, "long": 20.533333333333335, "category": "attraction", "emojis": "\ud83e\udd20|\ud83d\ude35|\ud83c\udf67"},
{"name": "La Flauta", "city": "Tripoli", "lat": 32.95, "long": 13.2, "category": "restaurant", "emojis": "\ud83d\udecf"},
{"name": "Restaurant Agua", "city": "New Delhi", "lat": 28.583333333333332, "long": 77.2, "category": "restaurant", "emojis": "\ud83d\udc4c|\ud83d\udc4c\ud83c\udffd|\ud83c\udf36\ufe0f"},
{"name": "Taverna del Bisbe", "city": "Hammerfest", "lat": 70.63333333333334, "long": 23.633333333333333, "category": "restaurant", "emojis": "\ud83d\ude18|\ud83d\udc8f"},
{"name": "El Filete Ruso", "city": "Prague", "lat": 50.083333333333336, "long": 14.433333333333334, "category": "restaurant", "emojis": "\ud83d\ude43|\ud83d\udc4c\ud83c\udffc|\ud83e\udd19"},
{"name": "CDLC", "city": "Vienna", "lat": 48.233333333333334, "long": 16.333333333333332, "category": "restaurant", "emojis": "\ud83d\ude18|\ud83d\udc4b\ud83c\udffd"},
{"name": "Museu Nacional d'Art de Catalunya", "city": "Manila", "lat": 14.583333333333334, "long": 120.95, "category": "attraction", "emojis": "\ud83d\udc4c\ud83c\udffe|\u2764\ufe0f"},
{"name": "Cervecer\u00eda Catalana", "city": "Buenos Aires", "lat": -34.583333333333336, "long": -58.36666666666667, "category": "restaurant", "emojis": "\ud83d\ude43"},
{"name": "Can Paixano", "city": "Nairobi", "lat": -1.4166666666666667, "long": 36.916666666666664, "category": "restaurant", "emojis": "\ud83d\ude1b|\ud83d\udc4c\ud83c\udffd"},
{"name": "Marsella", "city": "Johannesburg", "lat": -26.2, "long": 28.066666666666666, "category": "restaurant", "emojis": "\u270b|\u2764\ufe0f|\ud83d\ude01"},
{"name": "Vasi Restaurant", "city": "Frankfurt", "lat": 50.11666666666667, "long": 8.683333333333334, "category": "restaurant", "emojis": "\ud83d\ude01|\ud83d\ude1a"},
{"name": "Marhes Club", "city": "St. Petersburg", "lat": 59.93333333333333, "long": 30.3, "category": "attraction", "emojis": "\ud83d\udc4b\ud83c\udffc|\ud83d\udc4b\ud83c\udffb|\ud83d\udc7c"},
{"name": "Bar Tom\u00e1s", "city": "Guayaquil", "lat": -2.1666666666666665, "long": -79.93333333333334, "category": "restaurant", "emojis": "\ud83e\udd19"},
{"name": "Central Garden Hostel One", "city": "Irkutsk", "lat": 52.5, "long": 104.33333333333333, "category": "accommodation", "emojis": "\ud83c\udf36\ufe0f|\ud83d\ude1b"},
{"name": "Lolita Taperia", "city": "Guatemala City", "lat": 14.616666666666667, "long": -90.51666666666667, "category": "restaurant", "emojis": "\ud83c\udf36\ufe0f"},
{"name": "Barcel\u00f3 Raval", "city": "Manchester", "lat": 53.5, "long": -2.25, "category": "restaurant", "emojis": "\ud83d\ude44|\ud83d\ude1c|\ud83d\udc4b\ud83c\udfff"},
{"name": "Cervecer\u00eda Catalana", "city": "Nanjing (Nanking)", "lat": 32.05, "long": 118.88333333333334, "category": "restaurant", "emojis": "\ud83c\udf36"},
{"name": "El Rey de la Gamba", "city": "Bangkok", "lat": 13.75, "long": 100.5, "category": "restaurant", "emojis": "\ud83d\udc4d\ud83c\udffb|\ud83d\udc4d\ud83c\udffc|\ud83d\udc4d\ud83c\udffe"},
{"name": "Negro-rojo", "city": "Bucharest", "lat": 44.416666666666664, "long": 26.116666666666667, "category": "restaurant", "emojis": "\ud83e\udd1f|\ud83d\udc4b\ud83c\udffb|\ud83d\ude18"},
{"name": "Joan Mir\u00f3 Foundation", "city": "Lyons", "lat": 45.75, "long": 4.833333333333333, "category": "attraction", "emojis": "\ud83e\udd20"},
{"name": "Cera 23 Restaurant", "city": "Asunci\u00f3n", "lat": -25.25, "long": -57.666666666666664, "category": "restaurant", "emojis": "\ud83d\ude43|\ud83d\udc4c\ud83c\udffc|\ud83d\ude1c"},
{"name": "Ciudad Condal", "city": "Munich", "lat": 48.13333333333333, "long": 11.583333333333334, "category": "restaurant", "emojis": "\ud83d\ude42"},
{"name": "La Flauta", "city": "Brisbane", "lat": -27.483333333333334, "long": 153.13333333333333, "category": "restaurant", "emojis": "\ud83d\udc4d\ud83c\udffb|\ud83d\udc4b\ud83c\udfff"},
{"name": "La Flauta", "city": "Warsaw", "lat": 52.233333333333334, "long": 21.0, "category": "restaurant", "emojis": "\ud83d\udc8f"},
{"name": "Centro de Cultura Contempor\u00e1nea de Barcelona", "city": "Wellington", "lat": -41.28333333333333, "long": 174.78333333333333, "category": "attraction", "emojis": "\ud83d\udc4d\ud83c\udfff|\ud83d\udc91"},
{"name": "Frankfurt Pedralbes", "city": "Bristol", "lat": 51.46666666666667, "long": -2.5833333333333335, "category": "restaurant", "emojis": "\ud83d\udc4c\ud83c\udffd"},
{"name": "Tapas 24", "city": "Salvador", "lat": -12.933333333333334, "long": -38.45, "category": "restaurant", "emojis": "\ud83d\ude18|\ud83d\ude44"},
{"name": "Kiosko", "city": "Djibouti", "lat": 11.5, "long": 43.05, "category": "restaurant", "emojis": "\ud83d\udc80"},
{"name": "Budy Cafe", "city": "Bel\u00e9m", "lat": -1.4666666666666668, "long": -48.483333333333334, "category": "restaurant", "emojis": "\ud83d\ude42"},
{"name": "Cup and Cake", "city": "Bristol", "lat": 51.46666666666667, "long": -2.5833333333333335, "category": "restaurant", "emojis": "\ud83d\udc4d\ud83c\udffb"},
{"name": "La Flauta", "city": "Venice", "lat": 45.43333333333333, "long": 12.333333333333334, "category": "restaurant", "emojis": "\u2764\ufe0f|\u270b"},
{"name": "Alsur Caf\u00e9 (El Born)", "city": "Wellington", "lat": -41.28333333333333, "long": 174.78333333333333, "category": "restaurant", "emojis": "\ud83d\ude44|\ud83d\ude00"},
{"name": "Fragments Caf\u00e9", "city": "Port Moresby", "lat": -9.416666666666666, "long": 147.13333333333333, "category": "restaurant", "emojis": "\ud83d\udc4b\ud83c\udffb"},
{"name": "Maybe Barcelona", "city": "Tripoli", "lat": 32.95, "long": 13.2, "category": "attraction", "emojis": "\ud83d\udc4b\ud83c\udfff|\ud83d\udc8f|\ud83d\udc4c\ud83c\udffd"},
{"name": "Parc G\u00fcell", "city": "Caracas", "lat": 10.466666666666667, "long": -67.03333333333333, "category": "attraction", "emojis": "\ud83e\udd1e"},
{"name": "Restaurante Nuba", "city": "Prague", "lat": 50.083333333333336, "long": 14.433333333333334, "category": "restaurant", "emojis": "\ud83d\udc4b\ud83c\udffc|\ud83c\udf6e|\ud83d\udc4c\ud83c\udffe"},
{"name": "Parc G\u00fcell", "city": "Auckland", "lat": -36.86666666666667, "long": 174.75, "category": "attraction", "emojis": "\u2764\ufe0f|\ud83d\udc4d\ud83c\udffe|\u2764\ufe0f"},
{"name": "Jamboree", "city": "Rangoon", "lat": 16.833333333333332, "long": 96.0, "category": "attraction", "emojis": "\ud83d\ude00|\u270c\ufe0f|\ud83e\udd1f"},
{"name": "Caixaforum", "city": "Darwin", "lat": -12.466666666666667, "long": 130.85, "category": "attraction", "emojis": "\ud83d\ude1b|\ud83d\udc4c\ud83c\udfff|\ud83d\ude1a"},
{"name": "Quimet & Quimet", "city": "Bel\u00e9m", "lat": -1.4666666666666668, "long": -48.483333333333334, "category": "restaurant", "emojis": "\ud83c\uddeb\ud83c\uddf7|\ud83d\ude1a"},
{"name": "City Hall", "city": "Leeds", "lat": 53.75, "long": -1.5, "category": "attraction", "emojis": "\ud83d\ude1c|\ud83d\udc4b\ud83c\udffc|\ud83d\udc91"},
{"name": "La Vietnamita", "city": "Helsinki", "lat": 60.166666666666664, "long": 25.0, "category": "restaurant", "emojis": "\ud83d\ude43"},
{"name": "Toyo", "city": "Dakar", "lat": 14.666666666666666, "long": -17.466666666666665, "category": "restaurant", "emojis": "\ud83d\ude19"},
{"name": "Ciudad Condal", "city": "Havana", "lat": 23.133333333333333, "long": -82.38333333333334, "category": "restaurant", "emojis": "\ud83e\udd1f|\u270b|\ud83d\udc4d\ud83c\udffe"},
{"name": "Barcelona Museum of Contemporary Art", "city": "Melbourne", "lat": -37.78333333333333, "long": 144.96666666666667, "category": "attraction", "emojis": "\ud83d\udc4b\ud83c\udffb|\ud83d\ude44"},
{"name": "Bikini", "city": "Belgrade", "lat": 44.86666666666667, "long": 20.533333333333335, "category": "attraction", "emojis": "\ud83e\udd1f|\u270c\ufe0f|\ud83c\uddee\ud83c\uddf6"},
{"name": "El Xampanyet", "city": "Brussels", "lat": 50.86666666666667, "long": 4.366666666666666, "category": "restaurant", "emojis": "\ud83d\udc4b\ud83c\udfff"},
{"name": "Tarann\u00e0", "city": "Singapore", "lat": 1.2333333333333334, "long": 103.91666666666667, "category": "restaurant", "emojis": "\ud83d\udc42"},
{"name": "Frankfurt Pedralbes", "city": "Brisbane", "lat": -27.483333333333334, "long": 153.13333333333333, "category": "restaurant", "emojis": "\ud83e\udd20|\ud83e\udd20|\ud83d\udc4d\ud83c\udffb"},
{"name": "Hard Rock Cafe Barcelona", "city": "Melbourne", "lat": -37.78333333333333, "long": 144.96666666666667, "category": "restaurant", "emojis": "\ud83e\udd20"},
{"name": "El Petit Bangkok", "city": "Rome", "lat": 41.9, "long": 12.45, "category": "restaurant", "emojis": "\ud83d\udc8f"},
{"name": "A Casa Portuguesa", "city": "Barcelona", "lat": 41.38333333333333, "long": 2.15, "category": "restaurant", "emojis": "\ud83d\udc4d\ud83c\udffd|\ud83d\udc4d\ud83c\udffd|\ud83d\udc4d\ud83c\udfff"},
{"name": "Sagrada Fam\u00edlia", "city": "Bangkok", "lat": 13.75, "long": 100.5, "category": "attraction", "emojis": "\ud83d\ude42"},
{"name": "Addis Abeba", "city": "Kuala Lumpur", "lat": 3.1333333333333333, "long": 101.7, "category": "restaurant", "emojis": "\ud83d\ude44|\ud83d\ude19|\ud83d\udc4d\ud83c\udffc"},
{"name": "El Jard\u00ed de l'\u00c0pat Restaurant", "city": "Tokyo", "lat": 35.666666666666664, "long": 139.75, "category": "restaurant", "emojis": "\ud83d\udc4c\ud83c\udffe"},
{"name": "Sagrada Fam\u00edlia", "city": "Santiago", "lat": -33.46666666666667, "long": -70.75, "category": "attraction", "emojis": "\ud83d\udc4b\ud83c\udffe|\ud83d\udebe|\ud83d\ude42"},
{"name": "Centre Comercial Arenas de Barcelona", "city": "Darwin", "lat": -12.466666666666667, "long": 130.85, "category": "attraction", "emojis": "\ud83d\udc4b\ud83c\udffc"},
{"name": "Paco Meralgo", "city": "Athens", "lat": 37.96666666666667, "long": 23.716666666666665, "category": "restaurant", "emojis": "\u270b|\ud83d\udc4d\ud83c\udfff"},
{"name": "La Fonda del Port Ol\u00edmpic", "city": "Kinshasa", "lat": -4.3, "long": 15.283333333333333, "category": "restaurant", "emojis": "\ud83d\udc4c\ud83c\udfff"},
{"name": "Quimet & Quimet", "city": "S\u00e3o Paulo", "lat": -23.516666666666666, "long": -46.516666666666666, "category": "restaurant", "emojis": "\ud83e\udd1e|\ud83d\udc4b\ud83c\udffe"},
{"name": "Restaurant Agua", "city": "Berlin", "lat": 52.5, "long": 13.416666666666666, "category": "restaurant", "emojis": "\ud83d\udc4d\ud83c\udffb|\ud83d\udc4c\ud83c\udffc|\ud83d\ude44"},
{"name": "El Rey de la Gamba", "city": "Bombay", "lat": 19.0, "long": 72.8, "category": "restaurant", "emojis": "\ud83d\ude18"},
{"name": "BEST WESTERN Hotel ALFA Aeropuerto", "city": "Osaka", "lat": 34.53333333333333, "long": 135.5, "category": "accommodation", "emojis": "\ud83c\udde6\ud83c\uddfa|\ud83d\uddfd"},
{"name": "Jamboree", "city": "Liverpool", "lat": 53.416666666666664, "long": -3.0, "category": "attraction", "emojis": "\ud83d\udc4b\ud83c\udffe|\ud83d\udc4d\ud83c\udffb"},
{"name": "Taverna El Glop", "city": "Shanghai", "lat": 31.166666666666668, "long": 121.46666666666667, "category": "restaurant", "emojis": "\ud83d\udc4d\ud83c\udffe|\ud83e\udd19|\ud83d\ude00"},
{"name": "Aire de Barcelona", "city": "Canton", "lat": 23.116666666666667, "long": 113.25, "category": "attraction", "emojis": "\ud83d\udc4d\ud83c\udffd|\ud83d\udc4b\ud83c\udffe|\u270c\ufe0f"},
{"name": "Negro-rojo", "city": "Lisbon", "lat": 38.733333333333334, "long": -9.15, "category": "restaurant", "emojis": "\ud83e\udd1f|\ud83d\udc4d\ud83c\udfff"},
{"name": "Pura Brasa", "city": "Newcastle-on-Tyne", "lat": 54.96666666666667, "long": -1.6166666666666667, "category": "restaurant", "emojis": "\ud83d\udc4c\ud83c\udfff|\ud83d\udc8f|\ud83c\udfe6"},
{"name": "La Fonda", "city": "Dublin", "lat": 53.333333333333336, "long": -6.25, "category": "restaurant", "emojis": "\ud83d\udc4b\ud83c\udffc"},
{"name": "Cervecer\u00eda Catalana", "city": "Lima", "lat": -12.0, "long": -77.03333333333333, "category": "restaurant", "emojis": "\ud83d\udc86|\u270b|\ud83e\udd1f"},
{"name": "Alsur Caf\u00e9 (Palau)", "city": "Munich", "lat": 48.13333333333333, "long": 11.583333333333334, "category": "restaurant", "emojis": "\ud83d\udc6b"},
{"name": "federal caf\u00e9", "city": "Mecca", "lat": 21.483333333333334, "long": 39.75, "category": "restaurant", "emojis": "\ud83c\udf42|\ud83d\ude1c"},
{"name": "Quimet & Quimet", "city": "Prague", "lat": 50.083333333333336, "long": 14.433333333333334, "category": "restaurant", "emojis": "\ud83d\udc4b\ud83c\udfff|\ud83d\udc4b\ud83c\udffe"},
{"name": "Picasso Museum", "city": "Salvador", "lat": -12.933333333333334, "long": -38.45, "category": "attraction", "emojis": "\ud83d\udc4c\ud83c\udffc|\ud83d\udc4d\ud83c\udfff|\ud83d\udc4d\ud83c\udfff"},
{"name": "Kibuka", "city": "Tananarive", "lat": -18.833333333333332, "long": 47.55, "category": "restaurant", "emojis": "\ud83d\udc4d\ud83c\udffd|\ud83d\udc4b\ud83c\udffb"},
{"name": "Cal Pep Restaurant", "city": "Havana", "lat": 23.133333333333333, "long": -82.38333333333334, "category": "restaurant", "emojis": "\ud83d\udc91|\ud83d\udc4d\ud83c\udffb|\ud83d\udc4d\ud83c\udffc"},
{"name": "Ic\u00e1ria Yelmo Cineplex", "city": "Nairobi", "lat": -1.4166666666666667, "long": 36.916666666666664, "category": "attraction", "emojis": "\ud83d\ude01"},
{"name": "Taverna del Bisbe", "city": "Lisbon", "lat": 38.733333333333334, "long": -9.15, "category": "restaurant", "emojis": "\ud83d\udc4d\ud83c\udffd|\ud83d\udc4d\ud83c\udffd"},
{"name": "Sagrada Fam\u00edlia", "city": "Salvador", "lat": -12.933333333333334, "long": -38.45, "category": "attraction", "emojis": "\ud83d\ude1b|\ud83d\udc4c\ud83c\udffb|\ud83e\udd19"},
{"name": "NAP", "city": "Nagasaki", "lat": 32.8, "long": 129.95, "category": "restaurant", "emojis": "\ud83e\udd19|\ud83d\ude18|\ud83e\udd20"},
{"name": "Restaurante Boca Grande", "city": "Copenhagen", "lat": 55.666666666666664, "long": 12.566666666666666, "category": "restaurant", "emojis": "\ud83d\udc4b\ud83c\udffc|\ud83d\udc91|\ud83d\udc4c\ud83c\udfff"},
{"name": "Pla\u00e7a de Catalunya", "city": "S\u00e3o Paulo", "lat": -23.516666666666666, "long": -46.516666666666666, "category": "attraction", "emojis": "\ud83d\ude1b|\ud83d\ude43"},
{"name": "Consulado General de China", "city": "Osaka", "lat": 34.53333333333333, "long": 135.5, "category": "poi", "emojis": "\ud83e\udd1e"},
{"name": "Barcelona Museum of Contemporary Art", "city": "S\u00e3o Paulo", "lat": -23.516666666666666, "long": -46.516666666666666, "category": "attraction", "emojis": "\ud83d\udc4d\ud83c\udffd|\ud83d\ude43|\ud83d\ude01"},
{"name": "La Fonda", "city": "Warsaw", "lat": 52.233333333333334, "long": 21.0, "category": "restaurant", "emojis": "\ud83d\ude19|\ud83d\ude42|\ud83d\udc4c\ud83c\udffb"},
{"name": "Hife Barcelona", "city": "Vladivostok", "lat": 43.166666666666664, "long": 132.0, "category": "poi", "emojis": "\ud83d\udc4d\ud83c\udffb|\ud83d\ude43"},
{"name": "Ciudad Condal", "city": "Santiago", "lat": -33.46666666666667, "long": -70.75, "category": "restaurant", "emojis": "\ud83d\udc4d\ud83c\udffd|\ud83d\udc4c\ud83c\udfff"},
{"name": "Cup and Cake", "city": "Bangkok", "lat": 13.75, "long": 100.5, "category": "restaurant", "emojis": "\ud83d\ude44|\ud83d\udc4d\ud83c\udffb|\ud83d\ude1b"},
{"name": "Restaurante Boca Grande", "city": "S\u00e3o Paulo", "lat": -23.516666666666666, "long": -46.516666666666666, "category": "restaurant", "emojis": "\ud83d\udc4c\ud83c\udffc"},
{"name": "Pim Pam Burger", "city": "Oslo", "lat": 59.95, "long": 10.7, "category": "restaurant", "emojis": "\ud83d\udc4d\ud83c\udffd|\ud83e\udd19"},
{"name": "Barcel\u00f3 Raval", "city": "London", "lat": 51.53333333333333, "long": -0.08333333333333333, "category": "restaurant", "emojis": "\ud83d\udc4d\ud83c\udffd"},
{"name": "The Sutton Club", "city": "Veracruz", "lat": 19.166666666666668, "long": -96.16666666666667, "category": "attraction", "emojis": "\ud83d\ude00|\ud83d\udc4c\ud83c\udffe"},
{"name": "Rita Blue", "city": "London", "lat": 51.53333333333333, "long": -0.08333333333333333, "category": "restaurant", "emojis": "\u2764\ufe0f|\ud83d\udc4c\ud83c\udfff"},
{"name": "Restaurante Boca Grande", "city": "Hamburg", "lat": 53.55, "long": 10.033333333333333, "category": "restaurant", "emojis": "\ud83d\udc91"},
{"name": "Rita Blue", "city": "Cape Town", "lat": -33.916666666666664, "long": 18.366666666666667, "category": "restaurant", "emojis": "\ud83e\udd1e|\ud83d\ude43"},
{"name": "Bar Lobo", "city": "Jakarta", "lat": -6.266666666666667, "long": 106.8, "category": "restaurant", "emojis": "\u270c\ufe0f"},
{"name": "Palau de la Virreina", "city": "Munich", "lat": 48.13333333333333, "long": 11.583333333333334, "category": "poi", "emojis": "\ud83d\udc4d\ud83c\udffc|\ud83d\ude1c|\ud83c\udf36\ufe0f"},
{"name": "Mercat Princesa", "city": "New Delhi", "lat": 28.583333333333332, "long": 77.2, "category": "restaurant", "emojis": "\ud83c\udf55|\ud83d\ude1b|\ud83e\udd20"},
{"name": "Bar El Vel\u00f3dromo", "city": "Plymouth", "lat": 50.416666666666664, "long": -4.083333333333333, "category": "restaurant", "emojis": "\ud83d\udc4b\ud83c\udfff|\ud83d\udc4b\ud83c\udffe"},
{"name": "Sol de NIT", "city": "Bangkok", "lat": 13.75, "long": 100.5, "category": "restaurant", "emojis": "\ud83d\udc91|\ud83e\udd19"},
{"name": "Flaherty\u00b4s Irish Pub", "city": "Bangkok", "lat": 13.75, "long": 100.5, "category": "restaurant", "emojis": "\ud83c\udf75"},
{"name": "Tapas Locas", "city": "Helsinki", "lat": 60.166666666666664, "long": 25.0, "category": "restaurant", "emojis": "\ud83d\ude1a|\ud83d\ude1c|\u2764\ufe0f"},
{"name": "Cantina Machito", "city": "Irkutsk", "lat": 52.5, "long": 104.33333333333333, "category": "restaurant", "emojis": "\ud83d\udc4b\ud83c\udfff|\ud83e\udd19"},
{"name": "Sagrada Fam\u00edlia", "city": "Budapest", "lat": 47.5, "long": 19.083333333333332, "category": "attraction", "emojis": "\ud83d\udc4d\ud83c\udffe|\ud83e\udd20"},
{"name": "bar seco", "city": "Chihuahua", "lat": 28.616666666666667, "long": -106.08333333333333, "category": "restaurant", "emojis": "\ud83e\udd20|\ud83d\ude44"},
{"name": "federal caf\u00e9", "city": "Tokyo", "lat": 35.666666666666664, "long": 139.75, "category": "restaurant", "emojis": "\ud83e\udd1e|\ud83d\udc4c\ud83c\udffb|\ud83e\udd19"},
{"name": "Happy Bar & Grill Restaurant", "city": "Prague", "lat": 50.083333333333336, "long": 14.433333333333334, "category": "restaurant", "emojis": "\ud83d\udc4b"},
{"name": "Rita Blue", "city": "Auckland", "lat": -36.86666666666667, "long": 174.75, "category": "restaurant", "emojis": "\ud83d\ude1b|\ud83d\udc4b\ud83c\udffb|\u2764\ufe0f"},
{"name": "Casa Amatller", "city": "Santiago", "lat": -33.46666666666667, "long": -70.75, "category": "attraction", "emojis": "\ud83d\udc4c\ud83c\udfff|\ud83d\udc4b\ud83c\udffd|\ud83d\ude42"},
{"name": "Bar Mut", "city": "Johannesburg", "lat": -26.2, "long": 28.066666666666666, "category": "restaurant", "emojis": "\ud83d\udc4d\ud83c\udffb|\ud83d\udc4d\ud83c\udfff"},
{"name": "ABaC Restaurant & Hotel", "city": "Tananarive", "lat": -18.833333333333332, "long": 47.55, "category": "restaurant", "emojis": "\ud83d\ude18|\ud83d\udc4d\ud83c\udffe|\ud83d\udc4d\ud83c\udffd"},
{"name": "El Tragaluz", "city": "Z\u00fcrich", "lat": 47.35, "long": 8.516666666666667, "category": "restaurant", "emojis": "\ud83c\udfd3"},
{"name": "El Tragaluz", "city": "Leeds", "lat": 53.75, "long": -1.5, "category": "restaurant", "emojis": "\ud83d\udc91|\ud83c\udf36\ufe0f"},
{"name": "Starbucks", "city": "Canton", "lat": 23.116666666666667, "long": 113.25, "category": "restaurant", "emojis": "\ud83c\udf36\ufe0f|\ud83d\udc4c\ud83c\udffb"},
{"name": "La Fonda", "city": "Athens", "lat": 37.96666666666667, "long": 23.716666666666665, "category": "restaurant", "emojis": "\ud83d\ude19|\ud83e\udd1f"},
{"name": "Taller De Tapas", "city": "Reykjav\u00edk", "lat": 64.06666666666666, "long": -21.966666666666665, "category": "restaurant", "emojis": "\ud83d\udc4b\ud83c\udfff"},
{"name": "La Vietnamita", "city": "Tripoli", "lat": 32.95, "long": 13.2, "category": "restaurant", "emojis": "\ud83d\udc4b\ud83c\udffc|\ud83d\udc4c\ud83c\udffc|\ud83d\udc4b\ud83c\udffc"},
{"name": "Ciudad Condal", "city": "Hammerfest", "lat": 70.63333333333334, "long": 23.633333333333333, "category": "restaurant", "emojis": "\ud83d\udc4b\ud83c\udffe|\ud83d\udc4b\ud83c\udffe|\ud83d\udc4d\ud83c\udffe"},
{"name": "Top Tapas Restaurant", "city": "Tripoli", "lat": 32.95, "long": 13.2, "category": "restaurant", "emojis": "\ud83e\udd19|\ud83d\udc4d\ud83c\udffd|\u2764\ufe0f"},
{"name": "Rekons Urgell", "city": "S\u00e3o Paulo", "lat": -23.516666666666666, "long": -46.516666666666666, "category": "restaurant", "emojis": "\ud83e\udd1f|\ud83e\udd1e|\ud83c\uddf2\ud83c\uddfd"},
{"name": "Tez Tour Barcelona", "city": "Birmingham", "lat": 52.416666666666664, "long": -1.9166666666666665, "category": "poi", "emojis": "\ud83d\udc91"},
{"name": "Frankfurt Pedralbes", "city": "Salvador", "lat": -12.933333333333334, "long": -38.45, "category": "restaurant", "emojis": "\ud83d\udc8f"},
{"name": "Jamboree", "city": "Prague", "lat": 50.083333333333336, "long": 14.433333333333334, "category": "attraction", "emojis": "\ud83d\udc4d\ud83c\udffe"},
{"name": "La Gavina", "city": "Birmingham", "lat": 52.416666666666664, "long": -1.9166666666666665, "category": "restaurant", "emojis": "\ud83c\udf07|\ud83d\ude44|\ud83d\ude00"},
{"name": "Sal Caf\u00e9", "city": "Guatemala City", "lat": 14.616666666666667, "long": -90.51666666666667, "category": "restaurant", "emojis": "\ud83d\ude18"},
{"name": "Panader\u00eda Tallers", "city": "Liverpool", "lat": 53.416666666666664, "long": -3.0, "category": "restaurant", "emojis": "\ud83d\udc4d\ud83c\udffd|\ud83d\udc4c\ud83c\udffc"},
{"name": "Can Paixano", "city": "St. Petersburg", "lat": 59.93333333333333, "long": 30.3, "category": "restaurant", "emojis": "\ud83d\udc4b\ud83c\udffe|\ud83d\udc3b"},
{"name": "Auditori Axa", "city": "Cayenne", "lat": 4.816666666666666, "long": -52.3, "category": "poi", "emojis": "\ud83d\ude19|\ud83e\udd1e"},
{"name": "Kibuka", "city": "Madrid", "lat": 40.43333333333333, "long": -3.7, "category": "restaurant", "emojis": "\ud83c\udfa8"},
{"name": "Kiosko", "city": "Tripoli", "lat": 32.95, "long": 13.2, "category": "restaurant", "emojis": "\ud83e\udd19"},
{"name": "Cuines Santa Caterina", "city": "Moscow", "lat": 55.75, "long": 37.6, "category": "restaurant", "emojis": "\ud83e\udd1e|\u270c\ufe0f|\ud83c\udf36\ufe0f"},
{"name": "Jai-Ca", "city": "Lima", "lat": -12.0, "long": -77.03333333333333, "category": "restaurant", "emojis": "\ud83e\udd19|\ud83d\ude43|\ud83d\udc91"},
{"name": "Botafumeiro", "city": "Nagasaki", "lat": 32.8, "long": 129.95, "category": "restaurant", "emojis": "\u270c\ufe0f|\ud83d\ude1c"},
{"name": "Jamboree", "city": "Djibouti", "lat": 11.5, "long": 43.05, "category": "attraction", "emojis": "\ud83d\udc4b\ud83c\udfff|\ud83d\udc4c\ud83c\udffb"},
{"name": "Pla\u00e7a de Catalunya", "city": "Paris", "lat": 48.8, "long": 2.3333333333333335, "category": "attraction", "emojis": "\ud83e\udd19"},
{"name": "Restaurante Boca Grande", "city": "Milan", "lat": 45.45, "long": 9.166666666666666, "category": "restaurant", "emojis": "\ud83d\udc4d\ud83c\udffd|\ud83d\ude1a|\ud83e\udd19"},
{"name": "Tapas 24", "city": "St. Petersburg", "lat": 59.93333333333333, "long": 30.3, "category": "restaurant", "emojis": "\ud83d\udc4c\ud83c\udffc"},
{"name": "Ken Restaurante", "city": "Irkutsk", "lat": 52.5, "long": 104.33333333333333, "category": "restaurant", "emojis": "\u270b|\ud83e\udd1e|\ud83d\udc4c\ud83c\udffd"},
{"name": "Paco Meralgo", "city": "Mexico City", "lat": 19.433333333333334, "long": -99.11666666666666, "category": "restaurant", "emojis": "\ud83d\udc4c\ud83c\udffd|\ud83d\udc4b\ud83c\udfff|\ud83d\udc4c\ud83c\udffd"},
{"name": "La Panxa del Bisbe", "city": "Lima", "lat": -12.0, "long": -77.03333333333333, "category": "restaurant", "emojis": "\ud83d\ude1a"},
{"name": "Massimo", "city": "Bombay", "lat": 19.0, "long": 72.8, "category": "restaurant", "emojis": "\ud83d\ude1b|\ud83e\udd1f"},
{"name": "Marhes Club", "city": "Teheran", "lat": 35.75, "long": 51.75, "category": "attraction", "emojis": "\ud83d\udd12|\u270b|\ud83d\udc4d\ud83c\udffb"},
{"name": "Rosa del Raval Restaurant", "city": "Oslo", "lat": 59.95, "long": 10.7, "category": "restaurant", "emojis": "\ud83d\ude1a|\ud83e\udd19|\ud83d\udc4d\ud83c\udffd"},
{"name": "Cinesa Diagonal Mar", "city": "Dakar", "lat": 14.666666666666666, "long": -17.466666666666665, "category": "attraction", "emojis": "\u270c\ufe0f|\ud83e\udd1e"},
{"name": "Central Cafe", "city": "Vladivostok", "lat": 43.166666666666664, "long": 132.0, "category": "restaurant", "emojis": "\ud83d\ude43|\ud83d\ude43|\ud83d\ude43"},
{"name": "Rita Blue", "city": "Kinshasa", "lat": -4.3, "long": 15.283333333333333, "category": "restaurant", "emojis": "\ud83d\udc4b\ud83c\udffb"},
{"name": "Cervecer\u00eda Catalana", "city": "Guatemala City", "lat": 14.616666666666667, "long": -90.51666666666667, "category": "restaurant", "emojis": "\ud83d\udc4c\ud83c\udffe|\ud83d\udc4c\ud83c\udffe"},
{"name": "Alsur Caf\u00e9 (Palau)", "city": "Santiago", "lat": -33.46666666666667, "long": -70.75, "category": "restaurant", "emojis": "\ud83d\udd0c|\ud83d\udc4d\ud83c\udfff"},
{"name": "Pitarra", "city": "Cape Town", "lat": -33.916666666666664, "long": 18.366666666666667, "category": "restaurant", "emojis": "\ud83d\udc4b\ud83c\udfff"},
{"name": "Pura Brasa", "city": "Cayenne", "lat": 4.816666666666666, "long": -52.3, "category": "restaurant", "emojis": "\ud83d\udc4b\ud83c\udffb|\ud83e\udd20"},
{"name": "Sagrada Fam\u00edlia", "city": "C\u00f3rdoba", "lat": -31.466666666666665, "long": -64.16666666666667, "category": "attraction", "emojis": "\ud83d\ude19"},
{"name": "Mosquito", "city": "Bremen", "lat": 53.083333333333336, "long": 8.816666666666666, "category": "restaurant", "emojis": "\ud83d\ude1c|\ud83d\ude1a|\ud83d\udc4b\ud83c\udffe"},
{"name": "Pla\u00e7a Reial", "city": "Nairobi", "lat": -1.4166666666666667, "long": 36.916666666666664, "category": "attraction", "emojis": "\ud83d\udc8f"},
{"name": "The Sutton Club", "city": "Guatemala City", "lat": 14.616666666666667, "long": -90.51666666666667, "category": "attraction", "emojis": "\ud83d\udc4c\ud83c\udffc|\ud83c\udf75|\ud83d\udc4c\ud83c\udffe"},
{"name": "Paco Meralgo", "city": "Salvador", "lat": -12.933333333333334, "long": -38.45, "category": "restaurant", "emojis": "\ud83d\udc4b\ud83c\udffb"},
{"name": "Mirablau", "city": "Tokyo", "lat": 35.666666666666664, "long": 139.75, "category": "restaurant", "emojis": "\ud83e\udd20"},
{"name": "Costa Rica Terminal", "city": "Dublin", "lat": 53.333333333333336, "long": -6.25, "category": "poi", "emojis": "\ud83d\ude19"},
{"name": "Hard Rock Cafe Barcelona", "city": "Kinshasa", "lat": -4.3, "long": 15.283333333333333, "category": "restaurant", "emojis": "\ud83d\udc4d\ud83c\udffd"},
{"name": "Petit Comit\u00e9", "city": "Salvador", "lat": -12.933333333333334, "long": -38.45, "category": "restaurant", "emojis": "\u270c\ufe0f"},
{"name": "Sagrada Fam\u00edlia", "city": "Nagoya", "lat": 35.11666666666667, "long": 136.93333333333334, "category": "attraction", "emojis": "\u270b|\ud83d\udc4c\ud83c\udffe"},
{"name": "Da Greco", "city": "Georgetown", "lat": 6.75, "long": -58.25, "category": "restaurant", "emojis": "\ud83e\udd19|\u270c\ufe0f|\ud83d\udc8f"},
{"name": "Cervecer\u00eda Catalana", "city": "Santiago", "lat": -33.46666666666667, "long": -70.75, "category": "restaurant", "emojis": "\ud83d\udc4c\ud83c\udffe|\ud83d\udc4c\ud83c\udffe"},
{"name": "Museu Nacional d'Art de Catalunya", "city": "Auckland", "lat": -36.86666666666667, "long": 174.75, "category": "attraction", "emojis": "\ud83e\udd1f|\u2764\ufe0f"},
{"name": "Cervecer\u00eda Catalana", "city": "Buenos Aires", "lat": -34.583333333333336, "long": -58.36666666666667, "category": "restaurant", "emojis": "\ud83d\ude18|\ud83d\udc4b\ud83c\udffd|\ud83d\udc4c\ud83c\udffc"},
{"name": "Mama's Cafe", "city": "Bordeaux", "lat": 44.833333333333336, "long": -0.5166666666666667, "category": "restaurant", "emojis": "\ud83e\udd1e|\ud83d\udc4b\ud83c\udfff"},
{"name": "Galeria Manbrot", "city": "Hamburg", "lat": 53.55, "long": 10.033333333333333, "category": "attraction", "emojis": "\ud83d\ude1a|\ud83d\udc4c\ud83c\udffb|\ud83d\ude42"},
{"name": "Kuo", "city": "Georgetown", "lat": 6.75, "long": -58.25, "category": "restaurant", "emojis": "\ud83d\ude1c|\ud83d\udc4b\ud83c\udffd|\u270b"},
{"name": "Alsur Caf\u00e9 (El Born)", "city": "Melbourne", "lat": -37.78333333333333, "long": 144.96666666666667, "category": "restaurant", "emojis": "\ud83d\ude00|\ud83d\ude1b|\u270b"},
{"name": "Cup and Cake", "city": "Beijing", "lat": 39.916666666666664, "long": 116.41666666666667, "category": "restaurant", "emojis": "\ud83d\ude18|\ud83d\udc4c\ud83c\udffc"},
{"name": "La Taberna del Cura Restaurant", "city": "Algiers", "lat": 36.833333333333336, "long": 3.0, "category": "restaurant", "emojis": "\ud83d\udc4b\ud83c\udffc"},
{"name": "L'Amfora Restaurant", "city": "C\u00f3rdoba", "lat": -31.466666666666665, "long": -64.16666666666667, "category": "restaurant", "emojis": "\ud83c\udf50|\ud83d\ude43"},
{"name": "La Paradeta Sagarada Familia", "city": "Rome", "lat": 41.9, "long": 12.45, "category": "restaurant", "emojis": "\ud83d\udc4d\ud83c\udffe"},
{"name": "Caf\u00e9 Zurich", "city": "Havana", "lat": 23.133333333333333, "long": -82.38333333333334, "category": "restaurant", "emojis": "\ud83d\udc4d\ud83c\udfff|\ud83d\ude44|\ud83c\udfdc"},
{"name": "PENSION FRANCIA", "city": "Montevideo", "lat": -34.88333333333333, "long": -56.166666666666664, "category": "accommodation", "emojis": "\u270c\ufe0f"},
{"name": "La Venta", "city": "Budapest", "lat": 47.5, "long": 19.083333333333332, "category": "restaurant", "emojis": "\ud83d\udc4c\ud83c\udffd|\ud83d\udc8f|\ud83d\ude19"},
{"name": "Maybe Barcelona", "city": "Odessa", "lat": 46.45, "long": 30.8, "category": "attraction", "emojis": "\ud83d\ude18"},
{"name": "La Paradeta Sagarada Familia", "city": "Mexico City", "lat": 19.433333333333334, "long": -99.11666666666666, "category": "restaurant", "emojis": "\ud83d\ude1c|\ud83d\udc4c\ud83c\udffc|\ud83d\ude1a"},
{"name": "La Flauta", "city": "Belgrade", "lat": 44.86666666666667, "long": 20.533333333333335, "category": "restaurant", "emojis": "\ud83d\udc4c\ud83c\udffe|\ud83d\udc91"},
{"name": "Passeig 9", "city": "St. Petersburg", "lat": 59.93333333333333, "long": 30.3, "category": "restaurant", "emojis": "\ud83d\ude18"},
{"name": "Caixaforum", "city": "Z\u00fcrich", "lat": 47.35, "long": 8.516666666666667, "category": "attraction", "emojis": "\ud83e\udd1e|\u270b|\ud83d\ude1a"},
{"name": "Bread and Circuses", "city": "Lima", "lat": -12.0, "long": -77.03333333333333, "category": "restaurant", "emojis": "\ud83d\udc4b\ud83c\udffb"},
{"name": "Bar Lobo", "city": "Plymouth", "lat": 50.416666666666664, "long": -4.083333333333333, "category": "restaurant", "emojis": "\ud83d\udc4b\ud83c\udfff|\u2764\ufe0f"},
{"name": "Restaurante Boca Grande", "city": "Rangoon", "lat": 16.833333333333332, "long": 96.0, "category": "restaurant", "emojis": "\ud83d\udc4b\ud83c\udffe|\ud83d\ude1b"},
{"name": "Cal Pep Restaurant", "city": "Madrid", "lat": 40.43333333333333, "long": -3.7, "category": "restaurant", "emojis": "\ud83e\udd19"},
{"name": "Taller De Tapas", "city": "Sofia", "lat": 42.666666666666664, "long": 23.333333333333332, "category": "restaurant", "emojis": "\u270c\ufe0f|\ud83d\udc4d\ud83c\udffc"},
{"name": "Envalira", "city": "La Paz", "lat": -16.45, "long": -68.36666666666666, "category": "restaurant", "emojis": "\ud83d\udc4d\ud83c\udffc"},
{"name": "Fragments Caf\u00e9", "city": "Tripoli", "lat": 32.95, "long": 13.2, "category": "restaurant", "emojis": "\ud83d\udc4c\ud83c\udffd"},
{"name": "Parc G\u00fcell", "city": "Johannesburg", "lat": -26.2, "long": 28.066666666666666, "category": "attraction", "emojis": "\ud83d\ude1b|\ud83d\udc4b\ud83c\udfff"},
{"name": "Bar El Vel\u00f3dromo", "city": "Asunci\u00f3n", "lat": -25.25, "long": -57.666666666666664, "category": "restaurant", "emojis": "\ud83e\udd20"},
{"name": "Ciudad Condal", "city": "Warsaw", "lat": 52.233333333333334, "long": 21.0, "category": "restaurant", "emojis": "\ud83d\udc4d\ud83c\udffc"},
{"name": "Montju\u00efc Castle", "city": "Amsterdam", "lat": 52.36666666666667, "long": 4.883333333333333, "category": "attraction", "emojis": "\ud83d\udc4c\ud83c\udfff|\ud83d\udc02"},
{"name": "Lolita Taperia", "city": "Oslo", "lat": 59.95, "long": 10.7, "category": "restaurant", "emojis": "\ud83d\ude1c"},
{"name": "Up&Down Barcelona", "city": "Athens", "lat": 37.96666666666667, "long": 23.716666666666665, "category": "attraction", "emojis": "\ud83d\udc4b\ud83c\udffc|\ud83d\udc4c\ud83c\udffe"},
{"name": "Miramar Restaurant Garden & Club", "city": "Marseilles", "lat": 43.333333333333336, "long": 5.333333333333333, "category": "restaurant", "emojis": "\ud83d\udc4c\ud83c\udffb|\ud83d\udcf9"},
{"name": "Barcelona Bus Turistic", "city": "Veracruz", "lat": 19.166666666666668, "long": -96.16666666666667, "category": "poi", "emojis": "\ud83d\ude1b|\u270c\ufe0f"},
{"name": "Restaurante Boca Grande", "city": "Copenhagen", "lat": 55.666666666666664, "long": 12.566666666666666, "category": "restaurant", "emojis": "\ud83d\udc4b\ud83c\udffe"},
{"name": "Hamburguesa Nostra L'illa", "city": "Athens", "lat": 37.96666666666667, "long": 23.716666666666665, "category": "restaurant", "emojis": "\ud83d\udc4d\ud83c\udffe|\ud83d\udebd|\ud83d\ude1c"},
{"name": "La Fonda del Port Ol\u00edmpic", "city": "Nairobi", "lat": -1.4166666666666667, "long": 36.916666666666664, "category": "restaurant", "emojis": "\ud83d\udc4d\ud83c\udffc"},
{"name": "Dostrece Restaurant", "city": "Canton", "lat": 23.116666666666667, "long": 113.25, "category": "restaurant", "emojis": "\ud83d\ude18|\ud83d\ude00"},
{"name": "Barcelona Museum of Contemporary Art", "city": "Shanghai", "lat": 31.166666666666668, "long": 121.46666666666667, "category": "attraction", "emojis": "\ud83d\ude44|\ud83d\ude43|\ud83d\ude43"},
{"name": "Kibuka", "city": "Cayenne", "lat": 4.816666666666666, "long": -52.3, "category": "restaurant", "emojis": "\ud83d\udc4c\ud83c\udffc|\ud83d\udc4d\ud83c\udfff|\ud83c\udf6e"},
{"name": "lutxana art", "city": "Cape Town", "lat": -33.916666666666664, "long": 18.366666666666667, "category": "accommodation", "emojis": "\ud83d\ude1a|\ud83d\ude1b"},
{"name": "Quimet & Quimet", "city": "Hammerfest", "lat": 70.63333333333334, "long": 23.633333333333333, "category": "restaurant", "emojis": "\u2764\ufe0f|\ud83d\udc4d\ud83c\udffb|\ud83d\ude43"},
{"name": "Hard Rock Cafe Barcelona", "city": "Leeds", "lat": 53.75, "long": -1.5, "category": "restaurant", "emojis": "\ud83d\udc4c\ud83c\udffd|\u270c\ufe0f"},
{"name": "La Fonda", "city": "Sofia", "lat": 42.666666666666664, "long": 23.333333333333332, "category": "restaurant", "emojis": "\ud83d\udca8|\ud83d\udc4d\ud83c\udffe"},
{"name": "Milk Bar & Bistro Restaurant", "city": "Rome", "lat": 41.9, "long": 12.45, "category": "restaurant", "emojis": "\ud83d\udc4c\ud83c\udffb"},
{"name": "Rosal 34", "city": "Brussels", "lat": 50.86666666666667, "long": 4.366666666666666, "category": "restaurant", "emojis": "\ud83d\udc4d\ud83c\udffc|\ud83e\udd19|\ud83d\udc4c\ud83c\udffb"},
{"name": "Divina Pedralbes Pizzeria", "city": "Liverpool", "lat": 53.416666666666664, "long": -3.0, "category": "restaurant", "emojis": "\ud83d\udc4c\ud83c\udffd|\ud83c\udf36\ufe0f|\u2764\ufe0f"},
{"name": "Sagrada Fam\u00edlia", "city": "Belgrade", "lat": 44.86666666666667, "long": 20.533333333333335, "category": "attraction", "emojis": "\ud83d\ude01|\ud83e\udd19|\ud83d\udc4c\ud83c\udffb"},
{"name": "Cosmo", "city": "Nagoya", "lat": 35.11666666666667, "long": 136.93333333333334, "category": "restaurant", "emojis": "\ud83d\udc4c\ud83c\udffc"},
{"name": "La Pubilla", "city": "Durban", "lat": -29.883333333333333, "long": 30.883333333333333, "category": "restaurant", "emojis": "\ud83c\udf5e|\ud83d\udc4b\ud83c\udffe|\ud83e\udd20"},
{"name": "Starbucks", "city": "Leeds", "lat": 53.75, "long": -1.5, "category": "restaurant", "emojis": "\ud83d\udc4c\ud83c\udffd"},
{"name": "CDLC", "city": "St. Petersburg", "lat": 59.93333333333333, "long": 30.3, "category": "restaurant", "emojis": "\ud83d\udc4c\ud83c\udffb|\ud83d\ude1a|\ud83d\udd13"},
{"name": "Picasso Museum", "city": "Ankara", "lat": 39.916666666666664, "long": 32.916666666666664, "category": "attraction", "emojis": "\ud83d\ude43"},
{"name": "Bilbao Berria", "city": "Helsinki", "lat": 60.166666666666664, "long": 25.0, "category": "restaurant", "emojis": "\ud83d\ude1a"},
{"name": "Parc G\u00fcell", "city": "Warsaw", "lat": 52.233333333333334, "long": 21.0, "category": "attraction", "emojis": "\ud83d\udc4d\ud83c\udfff|\ud83d\udc4b\ud83c\udfff"},
{"name": "Verdi", "city": "Chihuahua", "lat": 28.616666666666667, "long": -106.08333333333333, "category": "attraction", "emojis": "\ud83d\ude1b"},
{"name": "Casa Amatller", "city": "Salvador", "lat": -12.933333333333334, "long": -38.45, "category": "poi", "emojis": "\ud83d\udc4d\ud83c\udfff"},
{"name": "Museu Nacional d'Art de Catalunya", "city": "Bucharest", "lat": 44.416666666666664, "long": 26.116666666666667, "category": "attraction", "emojis": "\ud83d\udc4d\ud83c\udffe|\ud83d\ude42"},
{"name": "Alsur Caf\u00e9 (El Born)", "city": "Helsinki", "lat": 60.166666666666664, "long": 25.0, "category": "restaurant", "emojis": "\ud83d\udc4b\ud83c\udffd|\ud83d\udc4d\ud83c\udffc|\ud83e\udd1e"},
{"name": "Da Raimondo", "city": "Canton", "lat": 23.116666666666667, "long": 113.25, "category": "restaurant", "emojis": "\ud83d\udc4d\ud83c\udffe|\ud83d\udc4b\ud83c\udfff|\ud83d\udc4c\ud83c\udffc"},
{"name": "Barcelona Museum of Contemporary Art", "city": "Irkutsk", "lat": 52.5, "long": 104.33333333333333, "category": "attraction", "emojis": "\ud83d\udc4b\ud83c\udffd"},
{"name": "La Piazzenza", "city": "Bombay", "lat": 19.0, "long": 72.8, "category": "restaurant", "emojis": "\ud83d\ude1c|\ud83d\ude01"},
{"name": "Kibuka", "city": "Nanjing (Nanking)", "lat": 32.05, "long": 118.88333333333334, "category": "restaurant", "emojis": "\ud83d\udc4b\ud83c\udffd|\ud83d\udca7"},
{"name": "La Piazzenza", "city": "Osaka", "lat": 34.53333333333333, "long": 135.5, "category": "restaurant", "emojis": "\ud83d\udc91|\ud83d\udc4b\ud83c\udffc"},
{"name": "Mandarin Oriental", "city": "Milan", "lat": 45.45, "long": 9.166666666666666, "category": "accommodation", "emojis": "\ud83d\udccf|\ud83d\ude44|\ud83d\udc1b"},
{"name": "Maitea", "city": "Berlin", "lat": 52.5, "long": 13.416666666666666, "category": "restaurant", "emojis": "\ud83d\ude1b|\ud83d\ude1a|\ud83e\udd1f"},
{"name": "Daps", "city": "Lisbon", "lat": 38.733333333333334, "long": -9.15, "category": "restaurant", "emojis": "\ud83d\udc4b\ud83c\udfff|\ud83d\udc4c\ud83c\udfff|\ud83d\udc4b\ud83c\udffd"},
{"name": "Cuines Santa Caterina", "city": "Bucharest", "lat": 44.416666666666664, "long": 26.116666666666667, "category": "restaurant", "emojis": "\ud83d\udc4c\ud83c\udffb"},
{"name": "Mart\u00ed Les Petits Plaisirs", "city": "Mexico City", "lat": 19.433333333333334, "long": -99.11666666666666, "category": "restaurant", "emojis": "\ud83d\udc4d\ud83c\udffd"},
{"name": "Happy Bar & Grill Restaurant", "city": "Bordeaux", "lat": 44.833333333333336, "long": -0.5166666666666667, "category": "restaurant", "emojis": "\ud83e\udd1e|\ud83d\udc91"},
{"name": "Toyo", "city": "Rome", "lat": 41.9, "long": 12.45, "category": "restaurant", "emojis": "\ud83d\ude44|\ud83d\udc8f"},
{"name": "Salamanca", "city": "Edinburgh", "lat": 55.916666666666664, "long": -3.1666666666666665, "category": "restaurant", "emojis": "\ud83d\ude18"},
{"name": "Restaurante parrilla Alfonsina", "city": "Nagasaki", "lat": 32.8, "long": 129.95, "category": "restaurant", "emojis": "\ud83d\udc4d\ud83c\udffe"},
{"name": "Restaurante Tenorio", "city": "Rangoon", "lat": 16.833333333333332, "long": 96.0, "category": "restaurant", "emojis": "\ud83d\udc4b\ud83c\udffd"},
{"name": "Parc G\u00fcell", "city": "New Delhi", "lat": 28.583333333333332, "long": 77.2, "category": "attraction", "emojis": "\u270c\ufe0f"},
{"name": "Flaherty\u00b4s Irish Pub", "city": "Guatemala City", "lat": 14.616666666666667, "long": -90.51666666666667, "category": "restaurant", "emojis": "\ud83d\udc03|\ud83d\udc4b\ud83c\udffc"},
{"name": "Marhes Club", "city": "Darwin", "lat": -12.466666666666667, "long": 130.85, "category": "attraction", "emojis": "\ud83d\ude0d|\ud83d\udc4d\ud83c\udffb"},
{"name": "Mosquito", "city": "Veracruz", "lat": 19.166666666666668, "long": -96.16666666666667, "category": "restaurant", "emojis": "\ud83d\udcda|\ud83d\ude00"},
{"name": "El Vaso De Oro", "city": "Kinshasa", "lat": -4.3, "long": 15.283333333333333, "category": "restaurant", "emojis": "\ud83d\udc4d\ud83c\udfff|\ud83d\udc4d\ud83c\udffb|\ud83d\udc4d\ud83c\udffe"},
{"name": "Peggy Sue's", "city": "Leeds", "lat": 53.75, "long": -1.5, "category": "restaurant", "emojis": "\ud83d\ude00|\ud83d\udc4b\ud83c\udffc|\ud83d\udc4d\ud83c\udfff"},
{"name": "The RoomService", "city": "Rome", "lat": 41.9, "long": 12.45, "category": "restaurant", "emojis": "\ud83d\ude01|\ud83d\udc4d\ud83c\udffd|\ud83d\ude01"},
{"name": "Starbucks", "city": "Sydney", "lat": -34.0, "long": 151.0, "category": "restaurant", "emojis": "\ud83d\udc4d\ud83c\udffb"},
{"name": "Caf\u00e9 San Telmo", "city": "Mecca", "lat": 21.483333333333334, "long": 39.75, "category": "restaurant", "emojis": "\ud83d\udc4b\ud83c\udffe"},
{"name": "Aduana Mar\u00edtima de Barcelona", "city": "Ankara", "lat": 39.916666666666664, "long": 32.916666666666664, "category": "poi", "emojis": "\ud83d\udc4b\ud83c\udfff|\ud83e\udd1e|\ud83d\udc91"},
{"name": "Hard Rock Cafe Barcelona", "city": "Johannesburg", "lat": -26.2, "long": 28.066666666666666, "category": "restaurant", "emojis": "\ud83d\ude42|\ud83d\ude1a|\ud83d\udc8f"},
{"name": "Ciudad Condal", "city": "Adelaide", "lat": -34.916666666666664, "long": 138.6, "category": "restaurant", "emojis": "\ud83e\udd20|\ud83d\udc4d\ud83c\udffd|\u270c\ufe0f"},
{"name": "Sagrada Fam\u00edlia", "city": "Munich", "lat": 48.13333333333333, "long": 11.583333333333334, "category": "attraction", "emojis": "\ud83d\ude00|\ud83e\udd20"},
{"name": "Pla\u00e7a de Catalunya", "city": "Bordeaux", "lat": 44.833333333333336, "long": -0.5166666666666667, "category": "attraction", "emojis": "\ud83d\udc4d\ud83c\udffc|\ud83d\udc4c\ud83c\udffb|\ud83e\udd1f"},
{"name": "Parc de la Ciutadella", "city": "Dakar", "lat": 14.666666666666666, "long": -17.466666666666665, "category": "attraction", "emojis": "\ud83d\udc4d\ud83c\udfff|\ud83d\ude43|\ud83d\udc4d\ud83c\udffb"},
{"name": "Borneo", "city": "Guatemala City", "lat": 14.616666666666667, "long": -90.51666666666667, "category": "restaurant", "emojis": "\u270b|\u2764\ufe0f|\ud83d\udc4b\ud83c\udffc"},
{"name": "WYSTC at Hotel Alimara", "city": "Cayenne", "lat": 4.816666666666666, "long": -52.3, "category": "poi", "emojis": "\ud83d\udc4b\ud83c\udffc|\ud83d\udc4d\ud83c\udffd"},
{"name": "Centre Comercial Arenas de Barcelona", "city": "Rio de Janeiro", "lat": -22.95, "long": -43.2, "category": "attraction", "emojis": "\ud83d\udc4b\ud83c\udfff|\ud83d\ude19"},
{"name": "La Cervesera Artesana", "city": "Paris", "lat": 48.8, "long": 2.3333333333333335, "category": "restaurant", "emojis": "\ud83d\udc4d\ud83c\udffb|\ud83e\udd20"},
{"name": "Alsur Caf\u00e9 (Palau)", "city": "Bremen", "lat": 53.083333333333336, "long": 8.816666666666666, "category": "restaurant", "emojis": "\ud83e\udd1f|\ud83d\ude01"},
{"name": "Parc G\u00fcell", "city": "Birmingham", "lat": 52.416666666666664, "long": -1.9166666666666665, "category": "attraction", "emojis": "\ud83d\udc4c\ud83c\udffe"},
{"name": "Panader\u00eda Tallers", "city": "Belgrade", "lat": 44.86666666666667, "long": 20.533333333333335, "category": "restaurant", "emojis": "\ud83d\ude1b|\ud83c\udf36\ufe0f"},
{"name": "Quimet & Quimet", "city": "Guayaquil", "lat": -2.1666666666666665, "long": -79.93333333333334, "category": "restaurant", "emojis": "\ud83d\udc4d\ud83c\udffe|\ud83d\udc4b\ud83c\udfff"},
{"name": "Panader\u00eda Tallers", "city": "Paris", "lat": 48.8, "long": 2.3333333333333335, "category": "restaurant", "emojis": "\ud83d\udc91|\ud83e\udd19|\ud83d\udc4c\ud83c\udffb"},
{"name": "Caf\u00e9 San Telmo", "city": "Bristol", "lat": 51.46666666666667, "long": -2.5833333333333335, "category": "restaurant", "emojis": "\ud83c\udf5a|\ud83d\ude01"},
{"name": "Picasso Museum", "city": "Frankfurt", "lat": 50.11666666666667, "long": 8.683333333333334, "category": "attraction", "emojis": "\ud83d\udc4b\ud83c\udffb|\ud83c\udf15"},
{"name": "Can Margarit", "city": "Shanghai", "lat": 31.166666666666668, "long": 121.46666666666667, "category": "restaurant", "emojis": "\ud83d\udc8f|\ud83d\udc4c\ud83c\udfff"},
{"name": "Sagrada Fam\u00edlia", "city": "Bucharest", "lat": 44.416666666666664, "long": 26.116666666666667, "category": "attraction", "emojis": "\ud83d\udc4c\ud83c\udfff|\ud83d\ude1a"},
{"name": "Bar Ca\u00f1ete", "city": "Bogot\u00e1", "lat": 4.533333333333333, "long": -74.25, "category": "restaurant", "emojis": "\ud83e\udd19|\ud83d\udc19|\ud83e\udd1f"},
{"name": "Joan Mir\u00f3 Foundation", "city": "Bristol", "lat": 51.46666666666667, "long": -2.5833333333333335, "category": "attraction", "emojis": "\ud83d\ude18|\ud83d\udc4c\ud83c\udffe"},
{"name": "Jamboree", "city": "Melbourne", "lat": -37.78333333333333, "long": 144.96666666666667, "category": "attraction", "emojis": "\u270c\ufe0f|\ud83d\udc4c\ud83c\udfff"},
{"name": "Mirablau", "city": "Berlin", "lat": 52.5, "long": 13.416666666666666, "category": "restaurant", "emojis": "\ud83d\udc4b\ud83c\udffb"},
{"name": "Razzmatazz", "city": "La Paz", "lat": -16.45, "long": -68.36666666666666, "category": "attraction", "emojis": "\ud83d\udc4b\ud83c\udffe|\ud83d\ude44|\ud83d\ude44"},
{"name": "Sagrada Fam\u00edlia", "city": "St. Petersburg", "lat": 59.93333333333333, "long": 30.3, "category": "attraction", "emojis": "\ud83e\udd20"},
{"name": "Ic\u00e1ria Yelmo Cineplex", "city": "S\u00e3o Paulo", "lat": -23.516666666666666, "long": -46.516666666666666, "category": "attraction", "emojis": "\ud83d\ude43|\ud83d\ude43|\ud83d\udc4d\ud83c\udffe"},
{"name": "El Rey de la Gamba", "city": "Bucharest", "lat": 44.416666666666664, "long": 26.116666666666667, "category": "restaurant", "emojis": "\ud83d\udc4d\ud83c\udffe"},
{"name": "Alsur Caf\u00e9 (Palau)", "city": "Warsaw", "lat": 52.233333333333334, "long": 21.0, "category": "restaurant", "emojis": "\ud83d\udc4c\ud83c\udffe|\ud83d\udc4d\ud83c\udffd"},
{"name": "Fundaci\u00f3 Antoni T\u00e0pies", "city": "Buenos Aires", "lat": -34.583333333333336, "long": -58.36666666666667, "category": "attraction", "emojis": "\ud83d\ude42"},
{"name": "Mirablau", "city": "Cairo", "lat": 30.033333333333335, "long": 31.35, "category": "restaurant", "emojis": "\ud83d\ude00"},
{"name": "Marhes Club", "city": "Stockholm", "lat": 59.28333333333333, "long": 18.05, "category": "attraction", "emojis": "\u2764\ufe0f|\ud83d\udc4c\ud83c\udfff|\ud83d\ude19"},
{"name": "La Taberna Griega Restaurant", "city": "Mazatl\u00e1n", "lat": 23.2, "long": -106.41666666666667, "category": "restaurant", "emojis": "\ud83d\ude44|\ud83d\udc4b\ud83c\udffb"},
{"name": "Pla\u00e7a Reial", "city": "Kingston", "lat": 17.983333333333334, "long": -76.81666666666666, "category": "attraction", "emojis": "\ud83d\udc4b\ud83c\udffb"},
{"name": "Picasso Museum", "city": "C\u00f3rdoba", "lat": -31.466666666666665, "long": -64.16666666666667, "category": "attraction", "emojis": "\ud83d\udc4b\ud83c\udffb|\ud83d\udc4d\ud83c\udffb"},
{"name": "Caf\u00e9 Zurich", "city": "Melbourne", "lat": -37.78333333333333, "long": 144.96666666666667, "category": "restaurant", "emojis": "\ud83d\udc4d\ud83c\udffe"},
{"name": "Restaurante Boca Grande", "city": "Caracas", "lat": 10.466666666666667, "long": -67.03333333333333, "category": "restaurant", "emojis": "\ud83c\udf36\ufe0f|\ud83d\udc4b\ud83c\udffc|\ud83c\udf4d"},
{"name": "Can Paixano", "city": "Rio de Janeiro", "lat": -22.95, "long": -43.2, "category": "restaurant", "emojis": "\ud83e\udd1f"},
{"name": "Pla\u00e7a de Catalunya", "city": "Tokyo", "lat": 35.666666666666664, "long": 139.75, "category": "attraction", "emojis": "\ud83d\udc4d\ud83c\udffd|\ud83d\udc4b\ud83c\udffc"},
{"name": "Casa Amatller", "city": "Santiago", "lat": -33.46666666666667, "long": -70.75, "category": "attraction", "emojis": "\ud83d\ude00"},
{"name": "La Flauta", "city": "Cayenne", "lat": 4.816666666666666, "long": -52.3, "category": "restaurant", "emojis": "\ud83d\udc4d\ud83c\udffc"},
{"name": "Sagrada Fam\u00edlia", "city": "Manchester", "lat": 53.5, "long": -2.25, "category": "attraction", "emojis": "\ud83d\udc4c\ud83c\udffc|\ud83d\udc4c\ud83c\udfff|\ud83d\ude00"},
{"name": "Ciudad Condal", "city": "Birmingham", "lat": 52.416666666666664, "long": -1.9166666666666665, "category": "restaurant", "emojis": "\ud83d\udc91|\ud83d\udc8f|\ud83d\ude42"},
{"name": "Los Caracoles", "city": "Port Moresby", "lat": -9.416666666666666, "long": 147.13333333333333, "category": "restaurant", "emojis": "\ud83d\udc4b\ud83c\udffb|\ud83d\ude01|\u270c\ufe0f"},
{"name": "Pla\u00e7a de Catalunya", "city": "Sydney", "lat": -34.0, "long": 151.0, "category": "attraction", "emojis": "\ud83d\ude44|\u2764\ufe0f"},
{"name": "Veg World India Restaurant", "city": "Nanjing (Nanking)", "lat": 32.05, "long": 118.88333333333334, "category": "restaurant", "emojis": "\ud83d\udc4c\ud83c\udffc|\ud83e\udd19|\ud83d\ude01"},
{"name": "Marhes Club", "city": "Dublin", "lat": 53.333333333333336, "long": -6.25, "category": "attraction", "emojis": "\ud83d\udc4b\ud83c\udffe|\ud83d\udc4b\ud83c\udffd"},
{"name": "Restaurante Tapa Tapa", "city": "Stockholm", "lat": 59.28333333333333, "long": 18.05, "category": "restaurant", "emojis": "\ud83d\udc4b\ud83c\udfff|\ud83e\udd1e"},
{"name": "El Rey de la Gamba", "city": "Dublin", "lat": 53.333333333333336, "long": -6.25, "category": "restaurant", "emojis": "\ud83d\udc4b\ud83c\udffb"},
{"name": "Cervecer\u00eda Catalana", "city": "Irkutsk", "lat": 52.5, "long": 104.33333333333333, "category": "restaurant", "emojis": "\ud83d\ude00"},
{"name": "Cal Pep Restaurant", "city": "Brisbane", "lat": -27.483333333333334, "long": 153.13333333333333, "category": "restaurant", "emojis": "\ud83d\udc4c\ud83c\udfff|\ud83d\udc4b\ud83c\udffd|\u270c\ufe0f"},
{"name": "Bar Celta", "city": "Aberdeen", "lat": 57.15, "long": -2.15, "category": "restaurant", "emojis": "\ud83e\udd1e"},
{"name": "7 Portes", "city": "Odessa", "lat": 46.45, "long": 30.8, "category": "restaurant", "emojis": "\ud83e\udd1f|\ud83e\udd1f"},
{"name": "Tapas 24", "city": "Johannesburg", "lat": -26.2, "long": 28.066666666666666, "category": "restaurant", "emojis": "\ud83d\ude01|\ud83d\ude0a"},
{"name": "Barcelona Zoo", "city": "Nanjing (Nanking)", "lat": 32.05, "long": 118.88333333333334, "category": "attraction", "emojis": "\ud83d\udc91"},
{"name": "Casa Mil\u00e0", "city": "Vienna", "lat": 48.233333333333334, "long": 16.333333333333332, "category": "attraction", "emojis": "\ud83c\udded\ud83c\uddf0|\ud83d\udc4c\ud83c\udffe|\u2764\ufe0f"},
{"name": "Alsur Caf\u00e9 (El Born)", "city": "Durban", "lat": -29.883333333333333, "long": 30.883333333333333, "category": "restaurant", "emojis": "\ud83d\ude44|\ud83d\udc91|\ud83d\udc4b\ud83c\udffe"},
{"name": "7 Portes", "city": "Vienna", "lat": 48.233333333333334, "long": 16.333333333333332, "category": "restaurant", "emojis": "\ud83d\ude42"},
{"name": "Kiosko", "city": "Shanghai", "lat": 31.166666666666668, "long": 121.46666666666667, "category": "restaurant", "emojis": "\ud83d\ude1c|\ud83d\udc91|\ud83d\udc4d\ud83c\udffb"},
{"name": "Palau de la Virreina", "city": "Paramaribo", "lat": 5.75, "long": -55.25, "category": "poi", "emojis": "\ud83d\udc4b\ud83c\udffc|\ud83c\udf36\ufe0f"},
{"name": "La Fonda", "city": "Dublin", "lat": 53.333333333333336, "long": -6.25, "category": "restaurant", "emojis": "\ud83e\udd19|\ud83d\ude18"},
{"name": "Els Pescadors", "city": "Milan", "lat": 45.45, "long": 9.166666666666666, "category": "restaurant", "emojis": "\ud83e\udd19|\ud83d\udc91|\u270b"},
{"name": "Bar Calders", "city": "Dublin", "lat": 53.333333333333336, "long": -6.25, "category": "restaurant", "emojis": "\ud83e\udd1e"},
{"name": "Starbucks", "city": "Salvador", "lat": -12.933333333333334, "long": -38.45, "category": "restaurant", "emojis": "\ud83d\ude44|\ud83d\udc91|\ud83e\udd1e"},
{"name": "Pla\u00e7a de Catalunya", "city": "Birmingham", "lat": 52.416666666666664, "long": -1.9166666666666665, "category": "attraction", "emojis": "\ud83d\udc4d\ud83c\udfff|\ud83d\ude44"},
{"name": "Sagrada Fam\u00edlia", "city": "Frankfurt", "lat": 50.11666666666667, "long": 8.683333333333334, "category": "attraction", "emojis": "\ud83d\udc4c\ud83c\udffc"},
{"name": "Taverna del Bisbe", "city": "Stockholm", "lat": 59.28333333333333, "long": 18.05, "category": "restaurant", "emojis": "\ud83d\udc4d\ud83c\udfff|\ud83d\udc8f"},
{"name": "Txapela", "city": "Salvador", "lat": -12.933333333333334, "long": -38.45, "category": "restaurant", "emojis": "\ud83d\udc4c\ud83c\udffe|\ud83d\ude1c|\ud83d\ude01"},
{"name": "El Vaso De Oro", "city": "Algiers", "lat": 36.833333333333336, "long": 3.0, "category": "restaurant", "emojis": "\ud83d\udd60|\ud83d\udc4b\ud83c\udffd"},
{"name": "Barcelona Museum of Contemporary Art", "city": "Bombay", "lat": 19.0, "long": 72.8, "category": "attraction", "emojis": "\ud83d\udc4d\ud83c\udffd|\ud83d\udc4d\ud83c\udffb|\u270b"},
{"name": "Xiringuito Escrib\u00e0", "city": "Tokyo", "lat": 35.666666666666664, "long": 139.75, "category": "restaurant", "emojis": "\ud83d\udc4d\ud83c\udffc|\ud83d\ude1a|\ud83e\udd1e"},
{"name": "Centre Comercial Arenas de Barcelona", "city": "Brussels", "lat": 50.86666666666667, "long": 4.366666666666666, "category": "attraction", "emojis": "\ud83c\udf2d|\ud83d\udc4b\ud83c\udffe|\ud83d\udc4b\ud83c\udffe"},
{"name": "Starbucks", "city": "Moscow", "lat": 55.75, "long": 37.6, "category": "restaurant", "emojis": "\ud83d\ude01|\ud83d\udc4b\ud83c\udffb|\ud83d\udc4d\ud83c\udffb"},
{"name": "Alsur Caf\u00e9 (Palau)", "city": "Caracas", "lat": 10.466666666666667, "long": -67.03333333333333, "category": "restaurant", "emojis": "\u270b"},
{"name": "Cervecer\u00eda Catalana", "city": "Chihuahua", "lat": 28.616666666666667, "long": -106.08333333333333, "category": "restaurant", "emojis": "\ud83d\udc91"},
{"name": "El Pati Blau Restaurant", "city": "Caracas", "lat": 10.466666666666667, "long": -67.03333333333333, "category": "restaurant", "emojis": "\ud83d\udc4d\ud83c\udffe"},
{"name": "Kibuka", "city": "New Delhi", "lat": 28.583333333333332, "long": 77.2, "category": "restaurant", "emojis": "\ud83d\udc4b\ud83c\udffb|\ud83d\udc4b\ud83c\udffd"},
{"name": "Caf\u00e9 Zurich", "city": "Munich", "lat": 48.13333333333333, "long": 11.583333333333334, "category": "restaurant", "emojis": "\ud83e\udd1f|\ud83d\udc4c\ud83c\udffb"},
{"name": "Elche", "city": "New Delhi", "lat": 28.583333333333332, "long": 77.2, "category": "restaurant", "emojis": "\ud83d\udc4b\ud83c\udffb"},
{"name": "Rosa del Raval Restaurant", "city": "Belgrade", "lat": 44.86666666666667, "long": 20.533333333333335, "category": "restaurant", "emojis": "\ud83d\ude1c"},
{"name": "Restaurante Italiano Rossini", "city": "Frankfurt", "lat": 50.11666666666667, "long": 8.683333333333334, "category": "restaurant", "emojis": "\ud83d\udc4b\ud83c\udffc"},
{"name": "Kahala", "city": "Lyons", "lat": 45.75, "long": 4.833333333333333, "category": "restaurant", "emojis": "\ud83d\udc4c\ud83c\udffb|\ud83d\udc4d\ud83c\udfff"},
{"name": "Restaurante Boca Grande", "city": "New Delhi", "lat": 28.583333333333332, "long": 77.2, "category": "restaurant", "emojis": "\ud83d\udc4c\ud83c\udffc"},
{"name": "La Mestressa", "city": "Tripoli", "lat": 32.95, "long": 13.2, "category": "restaurant", "emojis": "\ud83c\uddf2\ud83c\uddf8"},
{"name": "bBurger Barcelona", "city": "Nanjing (Nanking)", "lat": 32.05, "long": 118.88333333333334, "category": "restaurant", "emojis": "\ud83d\udc4d\ud83c\udfff|\ud83d\udc4d\ud83c\udffd"},
{"name": "Pla\u00e7a de Catalunya", "city": "Athens", "lat": 37.96666666666667, "long": 23.716666666666665, "category": "attraction", "emojis": "\ud83d\udc4b\ud83c\udffc|\ud83c\udde8\ud83c\uddf3"},
{"name": "Parc de les Aig\u00fces", "city": "Sofia", "lat": 42.666666666666664, "long": 23.333333333333332, "category": "attraction", "emojis": "\ud83c\udf36\ufe0f"},
{"name": "Pla\u00e7a de Catalunya", "city": "Panama City", "lat": 8.966666666666667, "long": -79.53333333333333, "category": "attraction", "emojis": "\ud83d\ude1b|\ud83d\udc4c\ud83c\udffe|\ud83d\udc4b\ud83c\udfff"},
{"name": "Mosquito", "city": "Salvador", "lat": -12.933333333333334, "long": -38.45, "category": "restaurant", "emojis": "\ud83d\ude01|\ud83d\udc4b\ud83c\udffb"},
{"name": "Tablao De Carmen", "city": "St. Petersburg", "lat": 59.93333333333333, "long": 30.3, "category": "restaurant", "emojis": "\ud83d\udc3b|\ud83d\udc91"},
{"name": "The RoomService", "city": "Moscow", "lat": 55.75, "long": 37.6, "category": "restaurant", "emojis": "\ud83d\udc4d\ud83c\udfff"},
{"name": "Pura Brasa", "city": "Frankfurt", "lat": 50.11666666666667, "long": 8.683333333333334, "category": "restaurant", "emojis": "\ud83d\ude1a|\ud83d\udc4c\ud83c\udffd"},
{"name": "Joan Mir\u00f3 Foundation", "city": "Prague", "lat": 50.083333333333336, "long": 14.433333333333334, "category": "attraction", "emojis": "\ud83d\udc4d\ud83c\udffc|\ud83d\udc4b\ud83c\udffb|\ud83d\ude19"},
{"name": "Barcelona Zoo", "city": "Brussels", "lat": 50.86666666666667, "long": 4.366666666666666, "category": "attraction", "emojis": "\ud83e\udd20|\ud83d\udc4b\ud83c\udffe|\ud83c\udf36\ufe0f"},
{"name": "Barcelona Zoo", "city": "Bombay", "lat": 19.0, "long": 72.8, "category": "attraction", "emojis": "\ud83d\udc4d\ud83c\udffd|\ud83c\udf36\ufe0f"},
{"name": "Caravelle", "city": "Chongqing", "lat": 29.766666666666666, "long": 106.56666666666666, "category": "restaurant", "emojis": "\u270c\ufe0f|\ud83d\udc4c\ud83c\udffd"},
{"name": "La Flauta", "city": "Leeds", "lat": 53.75, "long": -1.5, "category": "restaurant", "emojis": "\ud83d\udc4d\ud83c\udffe|\ud83d\udc4c\ud83c\udfff|\ud83d\udc4b\ud83c\udffb"},
{"name": "Central Garden Hostel One", "city": "Amsterdam", "lat": 52.36666666666667, "long": 4.883333333333333, "category": "accommodation", "emojis": "\ud83d\udc4b\ud83c\udffd|\ud83d\udc4b\ud83c\udffc|\ud83e\udd1e"},
{"name": "Kiosko", "city": "Paramaribo", "lat": 5.75, "long": -55.25, "category": "restaurant", "emojis": "\ud83d\ude42"},
{"name": "La Flauta", "city": "Brisbane", "lat": -27.483333333333334, "long": 153.13333333333333, "category": "restaurant", "emojis": "\ud83d\udc4b\ud83c\udffe"},
{"name": "Restaurante Italiano Pomodoro Rosso", "city": "Belgrade", "lat": 44.86666666666667, "long": 20.533333333333335, "category": "restaurant", "emojis": "\ud83d\udc4d\ud83c\udfff|\ud83d\ude1b"},
{"name": "La Paradeta", "city": "Havana", "lat": 23.133333333333333, "long": -82.38333333333334, "category": "restaurant", "emojis": "\ud83d\udc4d\ud83c\udffc|\ud83e\udd1e"},
{"name": "Maur", "city": "Oslo", "lat": 59.95, "long": 10.7, "category": "restaurant", "emojis": "\ud83d\udc4d\ud83c\udffb"},
{"name": "Happy Bar & Grill Restaurant", "city": "Buenos Aires", "lat": -34.583333333333336, "long": -58.36666666666667, "category": "restaurant", "emojis": "\ud83d\udc8f"},
{"name": "Bar Casi", "city": "Adelaide", "lat": -34.916666666666664, "long": 138.6, "category": "restaurant", "emojis": "\ud83d\udc4d\ud83c\udffd|\ud83d\udc4d\ud83c\udffe"},
{"name": "Bobby Gin S.L.", "city": "Durban", "lat": -29.883333333333333, "long": 30.883333333333333, "category": "restaurant", "emojis": "\ud83c\udf36\ufe0f|\ud83d\ude1b|\ud83d\ude18"},
{"name": "Montju\u00efc Castle", "city": "Montevideo", "lat": -34.88333333333333, "long": -56.166666666666664, "category": "attraction", "emojis": "\ud83d\udc4c\ud83c\udffb|\ud83d\ude44"},
{"name": "Paco Meralgo", "city": "Havana", "lat": 23.133333333333333, "long": -82.38333333333334, "category": "restaurant", "emojis": "\ud83e\udd1f|\ud83d\udc4b\ud83c\udffd"},
{"name": "Parisii Bistrot", "city": "Munich", "lat": 48.13333333333333, "long": 11.583333333333334, "category": "restaurant", "emojis": "\ud83d\udc4b\ud83c\udffc|\ud83d\udc4d\ud83c\udffe|\ud83d\ude1a"},
{"name": "Casa Mil\u00e0", "city": "Georgetown", "lat": 6.75, "long": -58.25, "category": "attraction", "emojis": "\ud83e\udd1e|\ud83d\udc4b\ud83c\udffd|\ud83d\udc4b\ud83c\udffd"},
{"name": "La Fonda", "city": "Reykjav\u00edk", "lat": 64.06666666666666, "long": -21.966666666666665, "category": "restaurant", "emojis": "\ud83d\udc4c\ud83c\udffe|\ud83d\udc4b\ud83c\udffe|\ud83d\ude18"},
{"name": "Refugi 307", "city": "Nairobi", "lat": -1.4166666666666667, "long": 36.916666666666664, "category": "poi", "emojis": "\ud83e\udd1e"},
{"name": "Rita Blue", "city": "Bangkok", "lat": 13.75, "long": 100.5, "category": "restaurant", "emojis": "\ud83d\udc4c\ud83c\udffb|\ud83d\ude1a"},
{"name": "La Dol\u00e7a Herm\u00ednia Restaurant", "city": "Hobart", "lat": -42.86666666666667, "long": 147.31666666666666, "category": "restaurant", "emojis": "\ud83d\udc4b\ud83c\udffb|\ud83c\uddfa\ud83c\uddf8"},
{"name": "La Fonda", "city": "Moscow", "lat": 55.75, "long": 37.6, "category": "restaurant", "emojis": "\ud83d\udc91|\ud83d\udc4c\ud83c\udfff"},
{"name": "Picasso Museum", "city": "Montevideo", "lat": -34.88333333333333, "long": -56.166666666666664, "category": "attraction", "emojis": "\ud83e\udd20|\ud83d\udc4b\ud83c\udffd|\ud83d\ude00"},
{"name": "Kiosko", "city": "Teheran", "lat": 35.75, "long": 51.75, "category": "restaurant", "emojis": "\ud83d\ude18|\ud83d\ude1a|\ud83d\udc4d\ud83c\udffe"},
{"name": "Paco Meralgo", "city": "Tananarive", "lat": -18.833333333333332, "long": 47.55, "category": "restaurant", "emojis": "\ud83d\ude42"},
{"name": "Doble Zer00 Restaurant", "city": "Kingston", "lat": 17.983333333333334, "long": -76.81666666666666, "category": "restaurant", "emojis": "\ud83d\udc4c\ud83c\udffd|\ud83e\udd20|\ud83e\udd19"},
{"name": "Picasso Museum", "city": "Bangkok", "lat": 13.75, "long": 100.5, "category": "attraction", "emojis": "\ud83d\udc4d\ud83c\udffd"},
{"name": "UDON Arenas", "city": "Kuala Lumpur", "lat": 3.1333333333333333, "long": 101.7, "category": "restaurant", "emojis": "\ud83c\udf4c\ud83c\udf69|\ud83d\ude19"},
{"name": "Kahala", "city": "Asunci\u00f3n", "lat": -25.25, "long": -57.666666666666664, "category": "restaurant", "emojis": "\ud83d\udc4d\ud83c\udffb|\u270b|\u270b"},
{"name": "Petit Comit\u00e9", "city": "Bel\u00e9m", "lat": -1.4666666666666668, "long": -48.483333333333334, "category": "restaurant", "emojis": "\ud83d\ude19|\ud83e\udd1e"},
{"name": "Sagardi BCN Gotic", "city": "Odessa", "lat": 46.45, "long": 30.8, "category": "restaurant", "emojis": "\ud83e\udd20"},
{"name": "Cervecer\u00eda Catalana", "city": "Sofia", "lat": 42.666666666666664, "long": 23.333333333333332, "category": "restaurant", "emojis": "\ud83d\ude42"},
{"name": "La Fonda", "city": "Cairo", "lat": 30.033333333333335, "long": 31.35, "category": "restaurant", "emojis": "\ud83d\udc4c\ud83c\udffd"},
{"name": "Txapela", "city": "Manila", "lat": 14.583333333333334, "long": 120.95, "category": "restaurant", "emojis": "\ud83c\uddee\ud83c\udde9"},
{"name": "Razzmatazz", "city": "Port Moresby", "lat": -9.416666666666666, "long": 147.13333333333333, "category": "attraction", "emojis": "\u270b|\ud83d\udc91"},
{"name": "Parc del laberint - Jard\u00ed museu", "city": "Moscow", "lat": 55.75, "long": 37.6, "category": "attraction", "emojis": "\ud83d\udc4b\ud83c\udffb|\ud83d\udd11"},
{"name": "Can Recasens", "city": "Paris", "lat": 48.8, "long": 2.3333333333333335, "category": "restaurant", "emojis": "\ud83d\ude18|\ud83d\udc4d\ud83c\udffe"},
{"name": "La Flauta", "city": "Lisbon", "lat": 38.733333333333334, "long": -9.15, "category": "restaurant", "emojis": "\u270c\ufe0f|\ud83d\udc4b\ud83c\udffc"},
{"name": "Starbucks", "city": "Nanjing (Nanking)", "lat": 32.05, "long": 118.88333333333334, "category": "restaurant", "emojis": "\ud83d\udc4d\ud83c\udffd|\ud83d\udc4b\ud83c\udffe"},
{"name": "Institut Universitari Dexeus", "city": "Beijing", "lat": 39.916666666666664, "long": 116.41666666666667, "category": "poi", "emojis": "\u270b|\ud83d\ude42|\ud83e\udd1f"},
{"name": "Botafumeiro", "city": "Buenos Aires", "lat": -34.583333333333336, "long": -58.36666666666667, "category": "restaurant", "emojis": "\ud83e\udd1e|\ud83d\udc4d\ud83c\udffb"},
{"name": "WYSTC Message Boards", "city": "Amsterdam", "lat": 52.36666666666667, "long": 4.883333333333333, "category": "poi", "emojis": "\ud83d\udc4c\ud83c\udffb"},
{"name": "Frankfurt Pedralbes", "city": "Reykjav\u00edk", "lat": 64.06666666666666, "long": -21.966666666666665, "category": "restaurant", "emojis": "\ud83d\udc4c\ud83c\udfff"},
{"name": "Peccato di Gola", "city": "Dublin", "lat": 53.333333333333336, "long": -6.25, "category": "restaurant", "emojis": "\ud83d\ude01|\ud83d\udc4c\ud83c\udffb"},
{"name": "Can Kenji", "city": "Warsaw", "lat": 52.233333333333334, "long": 21.0, "category": "restaurant", "emojis": "\ud83d\udc4d\ud83c\udfff|\ud83d\ude1a"},
{"name": "La Taguara Areperia", "city": "Leeds", "lat": 53.75, "long": -1.5, "category": "restaurant", "emojis": "\ud83e\udd1f"},
{"name": "Pla\u00e7a de Catalunya", "city": "S\u00e3o Paulo", "lat": -23.516666666666666, "long": -46.516666666666666, "category": "attraction", "emojis": "\ud83d\udce7"},
{"name": "Montju\u00efc Castle", "city": "Brussels", "lat": 50.86666666666667, "long": 4.366666666666666, "category": "attraction", "emojis": "\ud83d\udc4c\ud83c\udffe"},
{"name": "Parc del laberint - Jard\u00ed museu", "city": "Nairobi", "lat": -1.4166666666666667, "long": 36.916666666666664, "category": "attraction", "emojis": "\ud83d\udc44|\ud83d\ude43"},
{"name": "Samsara", "city": "Kinshasa", "lat": -4.3, "long": 15.283333333333333, "category": "restaurant", "emojis": "\ud83d\ude00|\ud83d\ude44|\ud83c\udf3e"},
{"name": "Sagrada Fam\u00edlia", "city": "Buenos Aires", "lat": -34.583333333333336, "long": -58.36666666666667, "category": "attraction", "emojis": "\ud83d\udc91|\ud83d\ude19"},
{"name": "Gimlet", "city": "Caracas", "lat": 10.466666666666667, "long": -67.03333333333333, "category": "restaurant", "emojis": "\ud83d\udc4b\ud83c\udfff|\ud83d\udc4b\ud83c\udfff"},
{"name": "Mandarin Oriental", "city": "Hobart", "lat": -42.86666666666667, "long": 147.31666666666666, "category": "accommodation", "emojis": "\ud83d\udc4c\ud83c\udffb|\ud83d\ude1b"},
{"name": "Cervecer\u00eda Catalana", "city": "Belfast", "lat": 54.61666666666667, "long": -5.933333333333334, "category": "restaurant", "emojis": "\ud83d\udc4c\ud83c\udffc|\ud83d\udc4b\ud83c\udffe"},
{"name": "Consulado General de China", "city": "Copenhagen", "lat": 55.666666666666664, "long": 12.566666666666666, "category": "poi", "emojis": "\ud83d\udc8f"},
{"name": "Toyo", "city": "Djibouti", "lat": 11.5, "long": 43.05, "category": "restaurant", "emojis": "\ud83e\udd20"},
{"name": "Cervecer\u00eda Catalana", "city": "Calcutta", "lat": 22.566666666666666, "long": 88.4, "category": "restaurant", "emojis": "\ud83d\udc4b\ud83c\udffd"},
{"name": "Cuines Santa Caterina", "city": "Kinshasa", "lat": -4.3, "long": 15.283333333333333, "category": "restaurant", "emojis": "\u2764\ufe0f|\ud83d\udc4d\ud83c\udffb|\ud83d\ude44"},
{"name": "Frankfurt Pedralbes", "city": "Chihuahua", "lat": 28.616666666666667, "long": -106.08333333333333, "category": "restaurant", "emojis": "\ud83d\udc4b\ud83c\udfff|\ud83e\udd1f|\ud83d\udc4b\ud83c\udffb"},
{"name": "Sagrada Fam\u00edlia", "city": "Copenhagen", "lat": 55.666666666666664, "long": 12.566666666666666, "category": "attraction", "emojis": "\ud83c\udf36\ufe0f|\ud83d\ude01"},
{"name": "Ciudad Condal", "city": "Odessa", "lat": 46.45, "long": 30.8, "category": "restaurant", "emojis": "\ud83d\udc4b\ud83c\udfff|\ud83d\udc4b\ud83c\udffd"},
{"name": "Restaurant Agua", "city": "Nanjing (Nanking)", "lat": 32.05, "long": 118.88333333333334, "category": "restaurant", "emojis": "\ud83e\udd19|\ud83c\uddf5\ud83c\uddfc"},
{"name": "La Paradeta", "city": "Edinburgh", "lat": 55.916666666666664, "long": -3.1666666666666665, "category": "restaurant", "emojis": "\ud83d\ude1b|\ud83d\udc4b\ud83c\udffb|\ud83d\udc4d\ud83c\udffc"},
{"name": "41\u00b0", "city": "Bremen", "lat": 53.083333333333336, "long": 8.816666666666666, "category": "restaurant", "emojis": "\ud83d\udc4b\ud83c\udfff"},
{"name": "Picasso Museum", "city": "Liverpool", "lat": 53.416666666666664, "long": -3.0, "category": "attraction", "emojis": "\ud83d\ude01|\ud83e\udd1e"},
{"name": "Alsur Caf\u00e9 (El Born)", "city": "Bucharest", "lat": 44.416666666666664, "long": 26.116666666666667, "category": "restaurant", "emojis": "\ud83d\ude44"},
{"name": "Sagrada Fam\u00edlia", "city": "Madrid", "lat": 40.43333333333333, "long": -3.7, "category": "attraction", "emojis": "\ud83e\udd20|\ud83d\ude42|\ud83d\udc91"},
{"name": "Restaurant La Bella Donna", "city": "Guatemala City", "lat": 14.616666666666667, "long": -90.51666666666667, "category": "restaurant", "emojis": "\ud83d\ude42"},
{"name": "Sagrada Fam\u00edlia", "city": "Kuala Lumpur", "lat": 3.1333333333333333, "long": 101.7, "category": "attraction", "emojis": "\ud83d\ude1c|\ud83d\udc4d\ud83c\udffb"},
{"name": "Bar Lobo", "city": "Chongqing", "lat": 29.766666666666666, "long": 106.56666666666666, "category": "restaurant", "emojis": "\ud83d\udc4b\ud83c\udfff"},
{"name": "Ciudad Condal", "city": "Bel\u00e9m", "lat": -1.4666666666666668, "long": -48.483333333333334, "category": "restaurant", "emojis": "\ud83d\udc4d\ud83c\udffe"},
{"name": "RESTAURANTE NOMO", "city": "Rome", "lat": 41.9, "long": 12.45, "category": "restaurant", "emojis": "\ud83c\udfe5|\ud83d\udc4b\ud83c\udffc|\ud83d\udc4b\ud83c\udffe"},
{"name": "Renoir Floridablanca", "city": "Mecca", "lat": 21.483333333333334, "long": 39.75, "category": "attraction", "emojis": "\ud83d\ude18|\ud83d\ude18"},
{"name": "Casa Amatller", "city": "Paramaribo", "lat": 5.75, "long": -55.25, "category": "attraction", "emojis": "\ud83d\ude1c|\ud83d\ude43|\ud83d\udc4b\ud83c\udfff"},
{"name": "Pla\u00e7a de Catalunya", "city": "Osaka", "lat": 34.53333333333333, "long": 135.5, "category": "attraction", "emojis": "\ud83d\ude43|\ud83d\ude44"},
{"name": "Sagrada Fam\u00edlia", "city": "Guayaquil", "lat": -2.1666666666666665, "long": -79.93333333333334, "category": "attraction", "emojis": "\ud83d\udc4d\ud83c\udffd|\ud83d\udc4c\ud83c\udfff|\ud83d\ude1b"},
{"name": "Ciudad Condal", "city": "Sydney", "lat": -34.0, "long": 151.0, "category": "restaurant", "emojis": "\ud83d\ude1c"},
{"name": "Razzmatazz", "city": "Chongqing", "lat": 29.766666666666666, "long": 106.56666666666666, "category": "attraction", "emojis": "\ud83d\ude42"},
{"name": "El Xampanyet", "city": "Mecca", "lat": 21.483333333333334, "long": 39.75, "category": "restaurant", "emojis": "\ud83d\udc4c\ud83c\udfff"},
{"name": "Xiringuito Escrib\u00e0", "city": "Beijing", "lat": 39.916666666666664, "long": 116.41666666666667, "category": "restaurant", "emojis": "\ud83d\ude44"},
{"name": "Sagrada Fam\u00edlia", "city": "Madrid", "lat": 40.43333333333333, "long": -3.7, "category": "attraction", "emojis": "\ud83d\udc4c\ud83c\udfff|\ud83d\ude01|\ud83c\udfd9"},
{"name": "Casa Museu Gaud\u00ed", "city": "Auckland", "lat": -36.86666666666667, "long": 174.75, "category": "attraction", "emojis": "\ud83d\ude1b"},
{"name": "Parc de Joan Mir\u00f3", "city": "La Paz", "lat": -16.45, "long": -68.36666666666666, "category": "attraction", "emojis": "\ud83e\udd19|\ud83d\udc4b\ud83c\udffd"},
{"name": "Bar Snack 55", "city": "Brisbane", "lat": -27.483333333333334, "long": 153.13333333333333, "category": "restaurant", "emojis": "\u270b|\ud83d\ude01|\ud83d\udc4c\ud83c\udfff"},
{"name": "Kahala", "city": "Lisbon", "lat": 38.733333333333334, "long": -9.15, "category": "restaurant", "emojis": "\ud83e\udd1e|\ud83c\udf2f|\ud83d\ude43"},
{"name": "CosmoCaixa", "city": "Stockholm", "lat": 59.28333333333333, "long": 18.05, "category": "attraction", "emojis": "\ud83d\udc4d\ud83c\udfff|\ud83d\udc4d\ud83c\udfff"},
{"name": "Braser\u00eda Can Xurrades", "city": "Oslo", "lat": 59.95, "long": 10.7, "category": "restaurant", "emojis": "\u270b|\ud83d\udc4b\ud83c\udffc|\ud83e\udd20"},
{"name": "Departament d'Ensenyament", "city": "London", "lat": 51.53333333333333, "long": -0.08333333333333333, "category": "poi", "emojis": "\ud83d\ude00|\ud83d\ude00|\ud83d\ude00"},
{"name": "UDON L'Illa", "city": "Port Moresby", "lat": -9.416666666666666, "long": 147.13333333333333, "category": "restaurant", "emojis": "\ud83d\udc4c\ud83c\udffb"},
{"name": "Up&Down Barcelona", "city": "Nagasaki", "lat": 32.8, "long": 129.95, "category": "attraction", "emojis": "\ud83d\udc4d\ud83c\udfff|\ud83d\ude43|\ud83d\ude44"},
{"name": "Museu de la Xocolata", "city": "Georgetown", "lat": 6.75, "long": -58.25, "category": "attraction", "emojis": "\ud83e\udd19|\ud83d\udcac|\ud83e\udd19"},
{"name": "Frankfurt Pedralbes", "city": "Canton", "lat": 23.116666666666667, "long": 113.25, "category": "restaurant", "emojis": "\ud83d\udc4c\ud83c\udffd"},
{"name": "Cervecer\u00eda Catalana", "city": "Algiers", "lat": 36.833333333333336, "long": 3.0, "category": "restaurant", "emojis": "\ud83e\udd20|\ud83c\udf36\ufe0f|\ud83d\udc4d\ud83c\udffc"},
{"name": "Kiosko", "city": "Bogot\u00e1", "lat": 4.533333333333333, "long": -74.25, "category": "restaurant", "emojis": "\ud83d\ude44|\ud83d\udc4c\ud83c\udffb"},
{"name": "Cuines Santa Caterina", "city": "Paris", "lat": 48.8, "long": 2.3333333333333335, "category": "restaurant", "emojis": "\ud83d\udc86|\ud83c\udf05"},
{"name": "Maybe Barcelona", "city": "Bucharest", "lat": 44.416666666666664, "long": 26.116666666666667, "category": "attraction", "emojis": "\ud83d\udcc8|\u270b"},
{"name": "Casa Amatller", "city": "Helsinki", "lat": 60.166666666666664, "long": 25.0, "category": "attraction", "emojis": "\u2764\ufe0f|\u270c\ufe0f"},
{"name": "Salamanca", "city": "New Delhi", "lat": 28.583333333333332, "long": 77.2, "category": "restaurant", "emojis": "\ud83d\ude42|\ud83d\ude1a|\ud83d\ude43"},
{"name": "Sagardi BCN Gotic", "city": "Canton", "lat": 23.116666666666667, "long": 113.25, "category": "restaurant", "emojis": "\ud83d\udc4c\ud83c\udffb|\ud83e\udd19|\u270b"},
{"name": "Paco Meralgo", "city": "Darwin", "lat": -12.466666666666667, "long": 130.85, "category": "restaurant", "emojis": "\ud83d\udc4d\ud83c\udffd|\ud83d\udc14"},
{"name": "Parc G\u00fcell", "city": "Bremen", "lat": 53.083333333333336, "long": 8.816666666666666, "category": "attraction", "emojis": "\ud83d\udc4c\ud83c\udffd|\ud83d\udc4b\ud83c\udffb"},
{"name": "Sagardi BCN Gotic", "city": "Kuala Lumpur", "lat": 3.1333333333333333, "long": 101.7, "category": "restaurant", "emojis": "\ud83d\udc4b\ud83c\udffc"},
{"name": "Euskal Etxea (Restaurant)", "city": "Nagasaki", "lat": 32.8, "long": 129.95, "category": "restaurant", "emojis": "\ud83e\udd1e|\ud83e\udd19|\ud83d\ude1a"},
{"name": "Barnabier", "city": "Naples", "lat": 40.833333333333336, "long": 14.25, "category": "restaurant", "emojis": "\ud83d\ude01|\ud83d\udc4c\ud83c\udfff|\ud83d\ude19"},
{"name": "Ugarit Joanic SL", "city": "Jakarta", "lat": -6.266666666666667, "long": 106.8, "category": "restaurant", "emojis": "\ud83d\udc4d\ud83c\udfff|\u270b"},
{"name": "Pla\u00e7a Reial", "city": "Reykjav\u00edk", "lat": 64.06666666666666, "long": -21.966666666666665, "category": "attraction", "emojis": "\ud83c\udf36\ufe0f|\ud83d\ude18|\ud83e\udd1f"},
{"name": "Los Caracoles", "city": "Paramaribo", "lat": 5.75, "long": -55.25, "category": "restaurant", "emojis": "\u2764\ufe0f|\ud83c\udf63"},
{"name": "Parc del laberint - Jard\u00ed museu", "city": "Port Moresby", "lat": -9.416666666666666, "long": 147.13333333333333, "category": "attraction", "emojis": "\u270c\ufe0f|\ud83d\udc4d\ud83c\udfff|\ud83e\udd1f"},
{"name": "Centro de Cultura Contempor\u00e1nea de Barcelona", "city": "Wellington", "lat": -41.28333333333333, "long": 174.78333333333333, "category": "attraction", "emojis": "\ud83d\udc4d\ud83c\udffb|\ud83d\udc5f|\ud83d\udc4b\ud83c\udffb"},
{"name": "Bikini", "city": "Cape Town", "lat": -33.916666666666664, "long": 18.366666666666667, "category": "attraction", "emojis": "\ud83e\udd1f|\ud83d\ude19"},
{"name": "Kiosko", "city": "Brussels", "lat": 50.86666666666667, "long": 4.366666666666666, "category": "restaurant", "emojis": "\ud83d\udc4c\ud83c\udffd"},
{"name": "CDLC", "city": "La Paz", "lat": -16.45, "long": -68.36666666666666, "category": "restaurant", "emojis": "\ud83d\udc92"},
{"name": "Parc G\u00fcell", "city": "Melbourne", "lat": -37.78333333333333, "long": 144.96666666666667, "category": "attraction", "emojis": "\ud83c\udf36\ufe0f"},
{"name": "La Gavina", "city": "Cairo", "lat": 30.033333333333335, "long": 31.35, "category": "restaurant", "emojis": "\ud83d\ude19|\ud83d\udc91|\ud83d\ude1c"},
{"name": "Cosmo", "city": "Rio de Janeiro", "lat": -22.95, "long": -43.2, "category": "restaurant", "emojis": "\ud83d\udc4b\ud83c\udffc"},
{"name": "Sagrada Fam\u00edlia", "city": "Kinshasa", "lat": -4.3, "long": 15.283333333333333, "category": "attraction", "emojis": "\ud83d\udc4c\ud83c\udffc"},
{"name": "Casa Mil\u00e0", "city": "Milan", "lat": 45.45, "long": 9.166666666666666, "category": "attraction", "emojis": "\ud83d\ude19|\ud83d\ude00|\ud83d\udc4b\ud83c\udffc"},
{"name": "Salamanca", "city": "Georgetown", "lat": 6.75, "long": -58.25, "category": "restaurant", "emojis": "\ud83d\udc4b\ud83c\udffe|\ud83d\ude43"},
{"name": "Centre Comercial Arenas de Barcelona", "city": "Wellington", "lat": -41.28333333333333, "long": 174.78333333333333, "category": "attraction", "emojis": "\u2764\ufe0f|\ud83d\udc4d\ud83c\udffb|\ud83d\ude18"},
{"name": "Can Kenji", "city": "Budapest", "lat": 47.5, "long": 19.083333333333332, "category": "restaurant", "emojis": "\ud83d\udc91"},
{"name": "Parisii Bistrot", "city": "Brisbane", "lat": -27.483333333333334, "long": 153.13333333333333, "category": "restaurant", "emojis": "\ud83d\ude1b|\ud83d\ude44"},
{"name": "Quimet & Quimet", "city": "Singapore", "lat": 1.2333333333333334, "long": 103.91666666666667, "category": "restaurant", "emojis": "\ud83d\udc4c\ud83c\udffe|\ud83e\udd1e"},
{"name": "Pla\u00e7a de Catalunya", "city": "Beijing", "lat": 39.916666666666664, "long": 116.41666666666667, "category": "attraction", "emojis": "\ud83c\udf36\ufe0f"},
{"name": "Txapela", "city": "Chihuahua", "lat": 28.616666666666667, "long": -106.08333333333333, "category": "restaurant", "emojis": "\ud83d\udc4c\ud83c\udffd|\ud83d\udeb2"},
{"name": "Sagrada Fam\u00edlia", "city": "Manila", "lat": 14.583333333333334, "long": 120.95, "category": "attraction", "emojis": "\u270c\ufe0f"},
{"name": "Ciudad Condal", "city": "Oslo", "lat": 59.95, "long": 10.7, "category": "restaurant", "emojis": "\ud83d\ude00"},
{"name": "Pura Brasa", "city": "Djibouti", "lat": 11.5, "long": 43.05, "category": "restaurant", "emojis": "\ud83d\ude01"},
{"name": "Bar Lobo", "city": "Guayaquil", "lat": -2.1666666666666665, "long": -79.93333333333334, "category": "restaurant", "emojis": "\ud83d\udc4b\ud83c\udfff|\ud83c\udf36\ufe0f|\ud83d\udc4c\ud83c\udffc"},
{"name": "La Candela", "city": "Durban", "lat": -29.883333333333333, "long": 30.883333333333333, "category": "restaurant", "emojis": "\ud83e\udd19|\ud83d\udc4b\ud83c\udfff"},
{"name": "Cinesa Diagonal Mar", "city": "Kuala Lumpur", "lat": 3.1333333333333333, "long": 101.7, "category": "attraction", "emojis": "\ud83d\udc8f|\ud83d\udebe"},
{"name": "Cervecer\u00eda Catalana", "city": "Odessa", "lat": 46.45, "long": 30.8, "category": "restaurant", "emojis": "\ud83d\ude42|\ud83d\ude19|\ud83d\udc5f"},
{"name": "Sagrada Fam\u00edlia", "city": "Chongqing", "lat": 29.766666666666666, "long": 106.56666666666666, "category": "attraction", "emojis": "\ud83e\udd19|\u2764\ufe0f"},
{"name": "Botafumeiro", "city": "Calcutta", "lat": 22.566666666666666, "long": 88.4, "category": "restaurant", "emojis": "\ud83d\ude1c|\ud83e\udd1f|\ud83d\udc4d\ud83c\udffc"},
{"name": "Restaurante El Rac\u00f3", "city": "Salvador", "lat": -12.933333333333334, "long": -38.45, "category": "restaurant", "emojis": "\ud83c\udf36\ufe0f"},
{"name": "Mandarin Oriental", "city": "Lisbon", "lat": 38.733333333333334, "long": -9.15, "category": "accommodation", "emojis": "\ud83d\ude1c|\ud83d\udc4c\ud83c\udffe"},
{"name": "Thai Gardens", "city": "Tananarive", "lat": -18.833333333333332, "long": 47.55, "category": "restaurant", "emojis": "\ud83d\ude44|\ud83e\udd1e|\u270b"},
{"name": "El Criollo", "city": "Chihuahua", "lat": 28.616666666666667, "long": -106.08333333333333, "category": "restaurant", "emojis": "\ud83c\udf70|\ud83d\udc4c\ud83c\udffe|\ud83d\udc4c\ud83c\udffb"},
{"name": "Sagrada Fam\u00edlia", "city": "Brussels", "lat": 50.86666666666667, "long": 4.366666666666666, "category": "attraction", "emojis": "\ud83d\udc4d\ud83c\udfff"},
{"name": "Los Caracoles", "city": "Auckland", "lat": -36.86666666666667, "long": 174.75, "category": "restaurant", "emojis": "\u270b|\ud83d\ude00|\ud83e\udd1e"},
{"name": "Braseria Ca\u00f1ota", "city": "Buenos Aires", "lat": -34.583333333333336, "long": -58.36666666666667, "category": "restaurant", "emojis": "\ud83d\ude43"},
{"name": "Veg World India Restaurant", "city": "Mazatl\u00e1n", "lat": 23.2, "long": -106.41666666666667, "category": "restaurant", "emojis": "\ud83d\udc4d\ud83c\udffc"},
{"name": "Casa Mil\u00e0", "city": "Rome", "lat": 41.9, "long": 12.45, "category": "attraction", "emojis": "\ud83d\ude43|\ud83d\ude44"},
{"name": "Central Garden Hostel One", "city": "Hamburg", "lat": 53.55, "long": 10.033333333333333, "category": "accommodation", "emojis": "\ud83c\udf36\ufe0f"},
{"name": "Casa Amatller", "city": "Kingston", "lat": 17.983333333333334, "long": -76.81666666666666, "category": "attraction", "emojis": "\ud83d\udc4d\ud83c\udffd|\ud83d\udc4d\ud83c\udfff|\ud83d\ude1a"},
{"name": "Restaurante Boca Grande", "city": "Brussels", "lat": 50.86666666666667, "long": 4.366666666666666, "category": "restaurant", "emojis": "\ud83c\udf2f|\ud83d\ude1b|\ud83e\udd20"},
{"name": "Otto Zutz", "city": "Cairo", "lat": 30.033333333333335, "long": 31.35, "category": "attraction", "emojis": "\u2764\ufe0f|\ud83d\udc91|\ud83d\udc4b\ud83c\udffe"},
{"name": "Paso de Zebra festival", "city": "Liverpool", "lat": 53.416666666666664, "long": -3.0, "category": "attraction", "emojis": "\ud83d\udc4b\ud83c\udfff|\ud83e\udd1e|\ud83c\udf36\ufe0f"},
{"name": "Sagrada Fam\u00edlia", "city": "Tokyo", "lat": 35.666666666666664, "long": 139.75, "category": "attraction", "emojis": "\u270c\ufe0f|\ud83d\udd34"},
{"name": "Musical Mar\u00eda", "city": "Athens", "lat": 37.96666666666667, "long": 23.716666666666665, "category": "restaurant", "emojis": "\u2764\ufe0f|\ud83e\udd1f"},
{"name": "El Rey de la Gamba", "city": "Sofia", "lat": 42.666666666666664, "long": 23.333333333333332, "category": "restaurant", "emojis": "\ud83d\udc4d\ud83c\udffc"},
{"name": "Restaurante El Vell Sarri\u00e0", "city": "Nairobi", "lat": -1.4166666666666667, "long": 36.916666666666664, "category": "restaurant", "emojis": "\ud83d\udc4b\ud83c\udffb"},
{"name": "Bar El Nus", "city": "Aberdeen", "lat": 57.15, "long": -2.15, "category": "restaurant", "emojis": "\ud83d\udc4b\ud83c\udffb|\ud83d\udc4c\ud83c\udffd"},
{"name": "The George Payne Irish Bar", "city": "Nanjing (Nanking)", "lat": 32.05, "long": 118.88333333333334, "category": "restaurant", "emojis": "\ud83d\udc4d\ud83c\udffc|\u2764\ufe0f"},
{"name": "Parc del laberint - Jard\u00ed museu", "city": "Plymouth", "lat": 50.416666666666664, "long": -4.083333333333333, "category": "attraction", "emojis": "\ud83d\udc4b\ud83c\udfff|\ud83d\udc4d\ud83c\udffb"},
{"name": "Sagrada Fam\u00edlia", "city": "Canton", "lat": 23.116666666666667, "long": 113.25, "category": "attraction", "emojis": "\ud83d\udc4b\ud83c\udffc|\u2764\ufe0f|\ud83d\udc4d\ud83c\udffe"},
{"name": "Mattia46", "city": "Prague", "lat": 50.083333333333336, "long": 14.433333333333334, "category": "poi", "emojis": "\ud83d\udc4c\ud83c\udffd|\ud83d\ude00"},
{"name": "Sagrada Fam\u00edlia", "city": "Budapest", "lat": 47.5, "long": 19.083333333333332, "category": "attraction", "emojis": "\ud83d\udc4d\ud83c\udffc|\u270c\ufe0f|\ud83d\udc4c\ud83c\udffd"},
{"name": "La Flauta", "city": "Melbourne", "lat": -37.78333333333333, "long": 144.96666666666667, "category": "restaurant", "emojis": "\u2764\ufe0f|\ud83d\udc4b\ud83c\udfff"},
{"name": "La Barca del Salamanca", "city": "Nanjing (Nanking)", "lat": 32.05, "long": 118.88333333333334, "category": "restaurant", "emojis": "\ud83d\udc4b\ud83c\udffb|\ud83d\udc4d\ud83c\udffc"},
{"name": "Picnic Restaurant", "city": "Hong Kong", "lat": 22.333333333333332, "long": 114.18333333333334, "category": "restaurant", "emojis": "\ud83d\udc4c\ud83c\udffb|\ud83d\udc4d\ud83c\udffc"},
{"name": "Bar Snack 55", "city": "Dakar", "lat": 14.666666666666666, "long": -17.466666666666665, "category": "restaurant", "emojis": "\ud83d\udc4d\ud83c\udfff|\ud83e\udd1f|\ud83d\ude01"},
{"name": "Tapas Locas", "city": "Kuala Lumpur", "lat": 3.1333333333333333, "long": 101.7, "category": "restaurant", "emojis": "\ud83d\ude00"},
{"name": "Ciudad Condal", "city": "Bombay", "lat": 19.0, "long": 72.8, "category": "restaurant", "emojis": "\ud83d\ude01|\ud83e\udd19|\ud83d\udc4c\ud83c\udffb"},
{"name": "La Flauta", "city": "Dakar", "lat": 14.666666666666666, "long": -17.466666666666665, "category": "restaurant", "emojis": "\ud83d\udc4d\ud83c\udffd"},
{"name": "City Hall", "city": "New Delhi", "lat": 28.583333333333332, "long": 77.2, "category": "attraction", "emojis": "\ud83d\ude42|\ud83d\udc4c\ud83c\udffd|\ud83d\udd59"},
{"name": "Hard Rock Cafe Barcelona", "city": "London", "lat": 51.53333333333333, "long": -0.08333333333333333, "category": "restaurant", "emojis": "\ud83d\ude1c"},
{"name": "Muccis", "city": "Oslo", "lat": 59.95, "long": 10.7, "category": "restaurant", "emojis": "\ud83d\ude44"},
{"name": "Xiringuito Escrib\u00e0", "city": "Lima", "lat": -12.0, "long": -77.03333333333333, "category": "restaurant", "emojis": "\ud83d\udc42"},
{"name": "Casa Jordi", "city": "Brisbane", "lat": -27.483333333333334, "long": 153.13333333333333, "category": "restaurant", "emojis": "\ud83d\udc4b\ud83c\udffe|\ud83c\udf7a|\ud83e\udd19"},
{"name": "Rekons Urgell", "city": "Glasgow", "lat": 55.833333333333336, "long": -4.25, "category": "restaurant", "emojis": "\ud83d\ude18|\ud83d\ude1b|\ud83d\udc4c\ud83c\udffc"},
{"name": "Los Caracoles", "city": "Cayenne", "lat": 4.816666666666666, "long": -52.3, "category": "restaurant", "emojis": "\ud83d\udc4c\ud83c\udffb|\ud83d\udc4d\ud83c\udffe"},
{"name": "Quimet & Quimet", "city": "Nagoya", "lat": 35.11666666666667, "long": 136.93333333333334, "category": "restaurant", "emojis": "\ud83d\ude01"},
{"name": "Bestial", "city": "Manila", "lat": 14.583333333333334, "long": 120.95, "category": "restaurant", "emojis": "\ud83e\udd19|\ud83d\udc4c\ud83c\udffd"},
{"name": "Top Tapas Restaurant", "city": "Georgetown", "lat": 6.75, "long": -58.25, "category": "restaurant", "emojis": "\ud83d\udc4b\ud83c\udffc|\ud83d\udc8f"},
{"name": "Barcelona Museum of Contemporary Art", "city": "Panama City", "lat": 8.966666666666667, "long": -79.53333333333333, "category": "attraction", "emojis": "\ud83d\udc8f"},
{"name": "Restaurant Agua", "city": "Iquique", "lat": -20.166666666666668, "long": -70.11666666666666, "category": "restaurant", "emojis": "\ud83d\ude1a|\ud83c\udf54|\ud83d\udc4d\ud83c\udffd"},
{"name": "La Bella Napoli", "city": "Edinburgh", "lat": 55.916666666666664, "long": -3.1666666666666665, "category": "restaurant", "emojis": "\ud83d\ude1c|\u2764\ufe0f"},
{"name": "Dostrece Restaurant", "city": "La Paz", "lat": -16.45, "long": -68.36666666666666, "category": "restaurant", "emojis": "\ud83d\udc4d\ud83c\udffc"},
{"name": "Barcel\u00f3 Raval", "city": "Munich", "lat": 48.13333333333333, "long": 11.583333333333334, "category": "restaurant", "emojis": "\ud83e\udd19|\ud83d\udc4c\ud83c\udffc"},
{"name": "Milk Bar & Bistro Restaurant", "city": "Georgetown", "lat": 6.75, "long": -58.25, "category": "restaurant", "emojis": "\ud83e\udd1f|\ud83d\ude1c"},
{"name": "Frankfurt Pedralbes", "city": "Caracas", "lat": 10.466666666666667, "long": -67.03333333333333, "category": "restaurant", "emojis": "\ud83d\udc4b\ud83c\udffd"},
{"name": "Can Paixano", "city": "Rome", "lat": 41.9, "long": 12.45, "category": "restaurant", "emojis": "\ud83d\udc4c\ud83c\udffb|\ud83e\udd1e"},
{"name": "Montju\u00efc Castle", "city": "Belfast", "lat": 54.61666666666667, "long": -5.933333333333334, "category": "attraction", "emojis": "\ud83d\udc8f"},
{"name": "Rac\u00f3 de la Vila", "city": "Nanjing (Nanking)", "lat": 32.05, "long": 118.88333333333334, "category": "restaurant", "emojis": "\u270b|\ud83d\udc91|\ud83d\udc4d\ud83c\udfff"},
{"name": "Parc de L'Espanya Industrial", "city": "Tokyo", "lat": 35.666666666666664, "long": 139.75, "category": "attraction", "emojis": "\ud83e\udd1e"},
{"name": "Casa Amatller", "city": "Birmingham", "lat": 52.416666666666664, "long": -1.9166666666666665, "category": "attraction", "emojis": "\ud83d\udc4d\ud83c\udffd|\ud83d\udc4d\ud83c\udffe"},
{"name": "Ciudad Condal", "city": "Algiers", "lat": 36.833333333333336, "long": 3.0, "category": "restaurant", "emojis": "\ud83d\udc8f"},
{"name": "Casa Amatller", "city": "Madrid", "lat": 40.43333333333333, "long": -3.7, "category": "attraction", "emojis": "\ud83d\udc4c\ud83c\udffb|\ud83c\udf36\ufe0f"},
{"name": "La Vietnamita Born", "city": "Havana", "lat": 23.133333333333333, "long": -82.38333333333334, "category": "restaurant", "emojis": "\ud83d\udc4d\ud83c\udffe|\ud83d\udc4d\ud83c\udffc|\u270c\ufe0f"},
{"name": "Indochine Restaurant", "city": "Warsaw", "lat": 52.233333333333334, "long": 21.0, "category": "restaurant", "emojis": "\ud83d\udc0c|\ud83d\udc46"},
{"name": "La Rita", "city": "Hamburg", "lat": 53.55, "long": 10.033333333333333, "category": "restaurant", "emojis": "\u2764\ufe0f|\ud83d\udc8f|\ud83e\udd1e"},
{"name": "Hard Rock Cafe Barcelona", "city": "Vienna", "lat": 48.233333333333334, "long": 16.333333333333332, "category": "restaurant", "emojis": "\ud83d\ude00|\ud83d\ude1b|\ud83d\udc4d\ud83c\udffb"},
{"name": "Caravelle", "city": "Dublin", "lat": 53.333333333333336, "long": -6.25, "category": "restaurant", "emojis": "\ud83d\udc4d\ud83c\udffe|\ud83d\ude00"},
{"name": "Los Caracoles", "city": "Osaka", "lat": 34.53333333333333, "long": 135.5, "category": "restaurant", "emojis": "\ud83d\ude1a|\ud83d\udd0a"},
{"name": "Takashi Ochiai Pastisseria", "city": "Mazatl\u00e1n", "lat": 23.2, "long": -106.41666666666667, "category": "restaurant", "emojis": "\ud83d\udc4c\ud83c\udffc|\ud83d\udc4b"},
{"name": "Las Golondrinas", "city": "Asunci\u00f3n", "lat": -25.25, "long": -57.666666666666664, "category": "poi", "emojis": "\ud83d\udc4c\ud83c\udffc|\ud83c\udfe5"},
{"name": "Miramar Restaurant Garden & Club", "city": "Copenhagen", "lat": 55.666666666666664, "long": 12.566666666666666, "category": "restaurant", "emojis": "\ud83d\udc4c\ud83c\udffb"},
{"name": "Petit Comit\u00e9", "city": "Tripoli", "lat": 32.95, "long": 13.2, "category": "restaurant", "emojis": "\ud83d\ude43"},
{"name": "Botafumeiro", "city": "Jakarta", "lat": -6.266666666666667, "long": 106.8, "category": "restaurant", "emojis": "\ud83d\udc8f"},
{"name": "Restaurante Boca Grande", "city": "Jakarta", "lat": -6.266666666666667, "long": 106.8, "category": "restaurant", "emojis": "\ud83d\ude44|\ud83d\udc4b\ud83c\udffd"},
{"name": "CDLC", "city": "Lisbon", "lat": 38.733333333333334, "long": -9.15, "category": "restaurant", "emojis": "\ud83d\udc4b\ud83c\udffe|\ud83d\udc4c\ud83c\udffc"},
{"name": "Cosmo", "city": "Buenos Aires", "lat": -34.583333333333336, "long": -58.36666666666667, "category": "restaurant", "emojis": "\ud83d\ude00"},
{"name": "Starbucks", "city": "Durban", "lat": -29.883333333333333, "long": 30.883333333333333, "category": "restaurant", "emojis": "\u270b|\ud83d\ude44"},
{"name": "Mosquito", "city": "Darwin", "lat": -12.466666666666667, "long": 130.85, "category": "restaurant", "emojis": "\ud83d\ude01|\ud83d\udc8f|\ud83d\ude43"},
{"name": "Picnic Restaurant", "city": "Auckland", "lat": -36.86666666666667, "long": 174.75, "category": "restaurant", "emojis": "\ud83d\udc91|\ud83e\udd1e|\ud83d\udc4b\ud83c\udffc"},
{"name": "Xiringuito Escrib\u00e0", "city": "Johannesburg", "lat": -26.2, "long": 28.066666666666666, "category": "restaurant", "emojis": "\ud83d\udc4b\ud83c\udffc"},
{"name": "El Tragaluz", "city": "Caracas", "lat": 10.466666666666667, "long": -67.03333333333333, "category": "restaurant", "emojis": "\ud83d\ude1a|\ud83d\ude42"},
{"name": "Flash Flash Tortiller\u00eda", "city": "Newcastle-on-Tyne", "lat": 54.96666666666667, "long": -1.6166666666666667, "category": "restaurant", "emojis": "\ud83d\udc4d\ud83c\udffd"},
{"name": "Sagrada Fam\u00edlia", "city": "Stockholm", "lat": 59.28333333333333, "long": 18.05, "category": "attraction", "emojis": "\ud83c\udf36\ufe0f|\ud83c\udde6\ud83c\uddfa"},
{"name": "Parc G\u00fcell", "city": "Vienna", "lat": 48.233333333333334, "long": 16.333333333333332, "category": "attraction", "emojis": "\ud83d\udc4b\ud83c\udfff"},
{"name": "Sagrada Fam\u00edlia", "city": "Copenhagen", "lat": 55.666666666666664, "long": 12.566666666666666, "category": "attraction", "emojis": "\u2764\ufe0f|\ud83d\udc4d\ud83c\udffe"},
{"name": "Cuines Santa Caterina", "city": "Asunci\u00f3n", "lat": -25.25, "long": -57.666666666666664, "category": "restaurant", "emojis": "\ud83d\ude43|\ud83c\udf36\ufe0f|\u2764\ufe0f"},
{"name": "Razzmatazz", "city": "C\u00f3rdoba", "lat": -31.466666666666665, "long": -64.16666666666667, "category": "attraction", "emojis": "\ud83d\udc4c\ud83c\udffd"},
{"name": "Aire de Barcelona", "city": "Adelaide", "lat": -34.916666666666664, "long": 138.6, "category": "attraction", "emojis": "\ud83d\udc4b\ud83c\udffc"},
{"name": "Elsa y Fred", "city": "Belfast", "lat": 54.61666666666667, "long": -5.933333333333334, "category": "restaurant", "emojis": "\ud83e\udd1f|\ud83c\udf5b"},
{"name": "Marhes Club", "city": "Algiers", "lat": 36.833333333333336, "long": 3.0, "category": "attraction", "emojis": "\ud83d\ude1c"},
{"name": "La Taverna del Born", "city": "Liverpool", "lat": 53.416666666666664, "long": -3.0, "category": "restaurant", "emojis": "\ud83d\ude44|\ud83d\ude44|\ud83d\ude43"},
{"name": "Sagrada Fam\u00edlia", "city": "St. Petersburg", "lat": 59.93333333333333, "long": 30.3, "category": "attraction", "emojis": "\ud83d\ude1c"},
{"name": "Betlem - Miscel\u00e1nea Gastron\u00f3mica", "city": "Frankfurt", "lat": 50.11666666666667, "long": 8.683333333333334, "category": "restaurant", "emojis": "\ud83d\ude01"},
{"name": "Ca\u00f1as y Tapas", "city": "Belgrade", "lat": 44.86666666666667, "long": 20.533333333333335, "category": "restaurant", "emojis": "\ud83d\udc4b\ud83c\udfff|\ud83e\udd20|\ud83d\udc4b\ud83c\udffe"},
{"name": "Sol de NIT", "city": "Hong Kong", "lat": 22.333333333333332, "long": 114.18333333333334, "category": "restaurant", "emojis": "\ud83d\udc4d\ud83c\udffc"},
{"name": "Bread and Circuses", "city": "Jakarta", "lat": -6.266666666666667, "long": 106.8, "category": "restaurant", "emojis": "\ud83d\udc8f|\ud83d\udc4d\ud83c\udfff|\ud83d\udc4b\ud83c\udfff"},
{"name": "Mandarin Oriental", "city": "Dublin", "lat": 53.333333333333336, "long": -6.25, "category": "accommodation", "emojis": "\ud83d\udc4b\ud83c\udffe|\ud83d\udc4d\ud83c\udfff|\ud83d\udc4c\ud83c\udfff"},
{"name": "Parc de la Ciutadella", "city": "Munich", "lat": 48.13333333333333, "long": 11.583333333333334, "category": "attraction", "emojis": "\ud83e\udd20|\ud83d\udc4b\ud83c\udffb|\ud83d\udc4c\ud83c\udffb"},
{"name": "World Trade Center Barcelona", "city": "Bucharest", "lat": 44.416666666666664, "long": 26.116666666666667, "category": "poi", "emojis": "\ud83d\udc4d\ud83c\udffe"},
{"name": "Marhes Club", "city": "Nagasaki", "lat": 32.8, "long": 129.95, "category": "attraction", "emojis": "\ud83d\ude18|\ud83d\udc4b\ud83c\udffd"},
{"name": "Cervecer\u00eda Catalana", "city": "Copenhagen", "lat": 55.666666666666664, "long": 12.566666666666666, "category": "restaurant", "emojis": "\ud83d\udc4b\ud83c\udffc|\ud83d\ude18|\ud83c\udf75"},
{"name": "Ciudad Condal", "city": "Jakarta", "lat": -6.266666666666667, "long": 106.8, "category": "restaurant", "emojis": "\ud83d\ude9a|\u270b|\ud83d\ude42"},
{"name": "Sagrada Fam\u00edlia", "city": "Irkutsk", "lat": 52.5, "long": 104.33333333333333, "category": "attraction", "emojis": "\u270c\ufe0f|\u270b|\ud83e\udd19"},
{"name": "Escrib\u00e0", "city": "Rio de Janeiro", "lat": -22.95, "long": -43.2, "category": "restaurant", "emojis": "\ud83d\udc4d\ud83c\udfff|\ud83d\ude44|\ud83e\udd1e"},
{"name": "Aerobus", "city": "Hobart", "lat": -42.86666666666667, "long": 147.31666666666666, "category": "poi", "emojis": "\ud83d\ude01|\u270c\ufe0f|\ud83d\ude19"},
{"name": "Pim Pam Burger", "city": "Algiers", "lat": 36.833333333333336, "long": 3.0, "category": "restaurant", "emojis": "\u270c\ufe0f"},
{"name": "federal caf\u00e9", "city": "Brisbane", "lat": -27.483333333333334, "long": 153.13333333333333, "category": "restaurant", "emojis": "\ud83c\udf36\ufe0f|\ud83d\udc4c\ud83c\udffe|\ud83e\udd1e"},
{"name": "Taller De Tapas", "city": "Stockholm", "lat": 59.28333333333333, "long": 18.05, "category": "restaurant", "emojis": "\ud83c\uddf8\ud83c\uddfe"},
{"name": "CDLC", "city": "Darwin", "lat": -12.466666666666667, "long": 130.85, "category": "restaurant", "emojis": "\ud83d\ude18|\ud83c\uddf8\ud83c\uddfe"},
{"name": "BEST WESTERN Hotel ALFA Aeropuerto", "city": "Sydney", "lat": -34.0, "long": 151.0, "category": "accommodation", "emojis": "\ud83d\udc4d\ud83c\udffb"},
{"name": "La Taguara Areperia", "city": "Brisbane", "lat": -27.483333333333334, "long": 153.13333333333333, "category": "restaurant", "emojis": "\ud83d\udc4d\ud83c\udfff|\ud83d\ude01|\ud83d\udc4c\ud83c\udffb"},
{"name": "Caixaforum", "city": "Mexico City", "lat": 19.433333333333334, "long": -99.11666666666666, "category": "attraction", "emojis": "\ud83d\ude00|\ud83e\udd1f"},
{"name": "Cal Pep Restaurant", "city": "Sydney", "lat": -34.0, "long": 151.0, "category": "restaurant", "emojis": "\ud83d\udc4d\ud83c\udffd"},
{"name": "Maritime Museum", "city": "Athens", "lat": 37.96666666666667, "long": 23.716666666666665, "category": "attraction", "emojis": "\ud83d\udc91|\u270b|\ud83d\ude1b"},
{"name": "Marsella", "city": "Bogot\u00e1", "lat": 4.533333333333333, "long": -74.25, "category": "restaurant", "emojis": "\u270b|\ud83d\udc8f|\ud83d\udebd"},
{"name": "Cinesa Diagonal Mar", "city": "Iquique", "lat": -20.166666666666668, "long": -70.11666666666666, "category": "attraction", "emojis": "\ud83d\ude19|\u270b|\ud83d\udc4d\ud83c\udffc"},
{"name": "La Buena Vida", "city": "Dakar", "lat": 14.666666666666666, "long": -17.466666666666665, "category": "restaurant", "emojis": "\ud83d\udc4b\ud83c\udffc|\ud83d\ude42"},
{"name": "Bestial", "city": "Rio de Janeiro", "lat": -22.95, "long": -43.2, "category": "restaurant", "emojis": "\ud83d\udc4c\ud83c\udffe|\u270c\ufe0f"},
{"name": "Cantina Machito", "city": "Nanjing (Nanking)", "lat": 32.05, "long": 118.88333333333334, "category": "restaurant", "emojis": "\ud83e\udd20"},
{"name": "Borneo", "city": "Teheran", "lat": 35.75, "long": 51.75, "category": "restaurant", "emojis": "\ud83d\udc4c\ud83c\udfff"},
{"name": "Paco Meralgo", "city": "Bangkok", "lat": 13.75, "long": 100.5, "category": "restaurant", "emojis": "\ud83d\udc4b\ud83c\udffc"},
{"name": "Abasolo Etxea", "city": "Birmingham", "lat": 52.416666666666664, "long": -1.9166666666666665, "category": "restaurant", "emojis": "\ud83d\ude01"},
{"name": "Jai-Ca", "city": "Belfast", "lat": 54.61666666666667, "long": -5.933333333333334, "category": "restaurant", "emojis": "\ud83d\udc4c\ud83c\udffb|\ud83d\udc4b\ud83c\udffd"},
{"name": "Sagrada Fam\u00edlia", "city": "Odessa", "lat": 46.45, "long": 30.8, "category": "attraction", "emojis": "\ud83d\udc4b\ud83c\udffb|\ud83d\udc4d\ud83c\udfff|\ud83d\udc4d\ud83c\udfff"},
{"name": "Els 4Gats", "city": "Shanghai", "lat": 31.166666666666668, "long": 121.46666666666667, "category": "restaurant", "emojis": "\ud83e\udd1e|\ud83d\udc4b\ud83c\udffc|\ud83e\udd19"},
{"name": "BEST WESTERN Hotel ALFA Aeropuerto", "city": "Sofia", "lat": 42.666666666666664, "long": 23.333333333333332, "category": "accommodation", "emojis": "\ud83c\udfdc"},
{"name": "Cal Pep Restaurant", "city": "Munich", "lat": 48.13333333333333, "long": 11.583333333333334, "category": "restaurant", "emojis": "\ud83d\udc4c\ud83c\udffc"},
{"name": "Pla\u00e7a de Catalunya", "city": "Helsinki", "lat": 60.166666666666664, "long": 25.0, "category": "attraction", "emojis": "\ud83d\udc4b\ud83c\udfff"},
{"name": "Ciudad Condal", "city": "Kuala Lumpur", "lat": 3.1333333333333333, "long": 101.7, "category": "restaurant", "emojis": "\ud83d\udc4d\ud83c\udffb|\ud83d\udc8f|\ud83d\ude18"},
{"name": "La Barca del Salamanca", "city": "Amsterdam", "lat": 52.36666666666667, "long": 4.883333333333333, "category": "restaurant", "emojis": "\ud83d\udc4c\ud83c\udffe|\ud83d\udc4d\ud83c\udfff|\ud83d\udc91"},
{"name": "Rosal 34", "city": "Marseilles", "lat": 43.333333333333336, "long": 5.333333333333333, "category": "restaurant", "emojis": "\ud83d\ude01|\ud83d\udc4b\ud83c\udffd"},
{"name": "Picasso Museum", "city": "Liverpool", "lat": 53.416666666666664, "long": -3.0, "category": "attraction", "emojis": "\ud83d\udc4d\ud83c\udffc"},
{"name": "Port Ol\u00edmpic", "city": "Milan", "lat": 45.45, "long": 9.166666666666666, "category": "attraction", "emojis": "\ud83d\udc4d\ud83c\udffe"},
{"name": "Restaurante Bacoa", "city": "Nanjing (Nanking)", "lat": 32.05, "long": 118.88333333333334, "category": "restaurant", "emojis": "\ud83d\ude1a"},
{"name": "Maybe Barcelona", "city": "Paramaribo", "lat": 5.75, "long": -55.25, "category": "attraction", "emojis": "\ud83d\ude00"},
{"name": "Plaza de Toros Monumental de Barcelona", "city": "Cape Town", "lat": -33.916666666666664, "long": 18.366666666666667, "category": "attraction", "emojis": "\ud83d\udc8f"},
{"name": "La Vietnamita Born", "city": "Mexico City", "lat": 19.433333333333334, "long": -99.11666666666666, "category": "restaurant", "emojis": "\ud83d\ude19|\u270c\ufe0f|\ud83d\udc4c\ud83c\udffd"},
{"name": "Tarann\u00e0", "city": "Belfast", "lat": 54.61666666666667, "long": -5.933333333333334, "category": "restaurant", "emojis": "\ud83d\ude1a|\ud83d\udc4b\ud83c\udffd"},
{"name": "Cervecer\u00eda Catalana", "city": "Bangkok", "lat": 13.75, "long": 100.5, "category": "restaurant", "emojis": "\ud83d\udc4d\ud83c\udffe|\ud83d\ude00|\ud83c\udf47"},
{"name": "Sagrada Fam\u00edlia", "city": "Tananarive", "lat": -18.833333333333332, "long": 47.55, "category": "attraction", "emojis": "\ud83d\udc4b\ud83c\udffe"},
{"name": "Casa Mil\u00e0", "city": "Kinshasa", "lat": -4.3, "long": 15.283333333333333, "category": "attraction", "emojis": "\ud83d\udc4b\ud83c\udffb"},
{"name": "Sagrada Fam\u00edlia", "city": "Budapest", "lat": 47.5, "long": 19.083333333333332, "category": "attraction", "emojis": "\ud83e\udd1f"},
{"name": "Cal Pep Restaurant", "city": "Bremen", "lat": 53.083333333333336, "long": 8.816666666666666, "category": "restaurant", "emojis": "\ud83d\udc4b\ud83c\udffe"},
{"name": "Museu de la Xocolata", "city": "Bombay", "lat": 19.0, "long": 72.8, "category": "attraction", "emojis": "\ud83c\udf36\ufe0f|\ud83d\udc4d\ud83c\udffe"},
{"name": "Paraiso Travellers Hostel", "city": "Milan", "lat": 45.45, "long": 9.166666666666666, "category": "accommodation", "emojis": "\ud83d\udd19|\ud83e\udd19"},
{"name": "Central Garden Hostel One", "city": "Rome", "lat": 41.9, "long": 12.45, "category": "accommodation", "emojis": "\ud83d\udc8f|\ud83d\udc4d\ud83c\udffb|\ud83d\udc4d\ud83c\udffd"},
{"name": "Sagrada Fam\u00edlia", "city": "Stockholm", "lat": 59.28333333333333, "long": 18.05, "category": "attraction", "emojis": "\ud83c\uddea\ud83c\uddf8"},
{"name": "World Trade Center Barcelona", "city": "Munich", "lat": 48.13333333333333, "long": 11.583333333333334, "category": "poi", "emojis": "\ud83d\ude44|\ud83d\udc4c\ud83c\udffd"},
{"name": "Barcelona Museum of Contemporary Art", "city": "Tripoli", "lat": 32.95, "long": 13.2, "category": "attraction", "emojis": "\ud83d\udc4c\ud83c\udffe|\u2764\ufe0f|\u270c\ufe0f"},
{"name": "Creperie Bretonne Annaick", "city": "Calcutta", "lat": 22.566666666666666, "long": 88.4, "category": "restaurant", "emojis": "\ud83d\udc91|\ud83d\ude42|\ud83e\udd1e"},
{"name": "Avinguda del Tibidabo", "city": "New Delhi", "lat": 28.583333333333332, "long": 77.2, "category": "poi", "emojis": "\ud83d\udc4c\ud83c\udffd|\ud83e\udd19"},
{"name": "Bar El Vel\u00f3dromo", "city": "Rangoon", "lat": 16.833333333333332, "long": 96.0, "category": "restaurant", "emojis": "\ud83d\ude1b|\ud83d\ude1c|\ud83d\udc8f"},
{"name": "La Barca del Salamanca", "city": "Sofia", "lat": 42.666666666666664, "long": 23.333333333333332, "category": "restaurant", "emojis": "\ud83e\udd20|\ud83d\ude01"},
{"name": "Fira de Barcelona", "city": "Chihuahua", "lat": 28.616666666666667, "long": -106.08333333333333, "category": "poi", "emojis": "\u270c\ufe0f|\ud83d\udc7f"},
{"name": "federal caf\u00e9", "city": "Asunci\u00f3n", "lat": -25.25, "long": -57.666666666666664, "category": "restaurant", "emojis": "\ud83d\udc4d\ud83c\udffc|\ud83d\ude00|\ud83d\udc4c\ud83c\udffb"},
{"name": "Pura Brasa", "city": "Prague", "lat": 50.083333333333336, "long": 14.433333333333334, "category": "restaurant", "emojis": "\ud83d\udc4d\ud83c\udffb|\u270c\ufe0f|\ud83d\udc4d\ud83c\udffd"},
{"name": "Pim Pam Burger", "city": "Mazatl\u00e1n", "lat": 23.2, "long": -106.41666666666667, "category": "restaurant", "emojis": "\u270b|\ud83d\udc4d\ud83c\udffc"},
{"name": "Kiosko", "city": "Auckland", "lat": -36.86666666666667, "long": 174.75, "category": "restaurant", "emojis": "\ud83d\udc4c\ud83c\udfff|\ud83d\udc4d\ud83c\udffc|\ud83d\ude18"},
{"name": "El Petit Bangkok", "city": "Singapore", "lat": 1.2333333333333334, "long": 103.91666666666667, "category": "restaurant", "emojis": "\ud83d\ude1c"},
{"name": "El Xampanyet", "city": "Calcutta", "lat": 22.566666666666666, "long": 88.4, "category": "restaurant", "emojis": "\ud83d\ude1c|\ud83d\udc8f"},
{"name": "Casa Museu Gaud\u00ed", "city": "Havana", "lat": 23.133333333333333, "long": -82.38333333333334, "category": "attraction", "emojis": "\ud83d\udcd6"},
{"name": "Mobile World Centre", "city": "Berlin", "lat": 52.5, "long": 13.416666666666666, "category": "poi", "emojis": "\ud83d\ude1a"},
{"name": "La Taverna del Born", "city": "Montevideo", "lat": -34.88333333333333, "long": -56.166666666666664, "category": "restaurant", "emojis": "\ud83d\udc91"},
{"name": "Cuines Santa Caterina", "city": "Sofia", "lat": 42.666666666666664, "long": 23.333333333333332, "category": "restaurant", "emojis": "\ud83d\ude1b|\ud83d\udc4b\ud83c\udffd|\ud83d\ude43"},
{"name": "Restaurante El Rac\u00f3", "city": "Nanjing (Nanking)", "lat": 32.05, "long": 118.88333333333334, "category": "restaurant", "emojis": "\ud83d\udcef|\ud83d\udc4b\ud83c\udffc|\ud83d\udc4c\ud83c\udffe"},
{"name": "La Llar de Foc", "city": "Belgrade", "lat": 44.86666666666667, "long": 20.533333333333335, "category": "restaurant", "emojis": "\ud83d\ude18|\ud83d\udc78"},
{"name": "Quimet & Quimet", "city": "Budapest", "lat": 47.5, "long": 19.083333333333332, "category": "restaurant", "emojis": "\ud83d\udc4c\ud83c\udffd"},
{"name": "Dostrece Restaurant", "city": "Johannesburg", "lat": -26.2, "long": 28.066666666666666, "category": "restaurant", "emojis": "\ud83d\udc4d\ud83c\udfff|\ud83d\udc8f|\ud83d\ude8e"},
{"name": "7 Portes", "city": "Darwin", "lat": -12.466666666666667, "long": 130.85, "category": "restaurant", "emojis": "\ud83d\udc4c\ud83c\udffb|\ud83e\udd20"},
{"name": "Absenta Bar", "city": "Sofia", "lat": 42.666666666666664, "long": 23.333333333333332, "category": "restaurant", "emojis": "\ud83d\ude18"},
{"name": "Negro-rojo", "city": "Beijing", "lat": 39.916666666666664, "long": 116.41666666666667, "category": "restaurant", "emojis": "\ud83d\udc4b\ud83c\udffc|\ud83d\udc4d\ud83c\udffe"},
{"name": "Barcelona Zoo", "city": "Perth", "lat": -31.95, "long": 115.86666666666666, "category": "attraction", "emojis": "\ud83d\ude43"},
{"name": "Rosa Negra", "city": "Ankara", "lat": 39.916666666666664, "long": 32.916666666666664, "category": "restaurant", "emojis": "\ud83d\udc4d\ud83c\udffb|\ud83d\ude1a"},
{"name": "Bar El Vel\u00f3dromo", "city": "Barcelona", "lat": 41.38333333333333, "long": 2.15, "category": "restaurant", "emojis": "\ud83d\udc4c\ud83c\udffc|\ud83d\udc4b\ud83c\udfff"},
{"name": "Restaurant Agua", "city": "Marseilles", "lat": 43.333333333333336, "long": 5.333333333333333, "category": "restaurant", "emojis": "\ud83d\udc62|\ud83d\udc4b\ud83c\udffd|\ud83c\udfb8"},
{"name": "Hispanos Siete Suiza Apartments Barcelona", "city": "Helsinki", "lat": 60.166666666666664, "long": 25.0, "category": "accommodation", "emojis": "\ud83e\udd1f|\ud83d\ude01|\ud83d\ude42"},
{"name": "Txapela", "city": "Durban", "lat": -29.883333333333333, "long": 30.883333333333333, "category": "restaurant", "emojis": "\ud83d\udc4b\ud83c\udffc"},
{"name": "CDLC", "city": "Rio de Janeiro", "lat": -22.95, "long": -43.2, "category": "restaurant", "emojis": "\ud83d\udc4b\ud83c\udffe"},
{"name": "Pla\u00e7a de Catalunya", "city": "Naples", "lat": 40.833333333333336, "long": 14.25, "category": "attraction", "emojis": "\ud83d\udc4c\ud83c\udffd|\ud83c\udfca|\u270c\ufe0f"},
{"name": "Ciudad Condal", "city": "Kuala Lumpur", "lat": 3.1333333333333333, "long": 101.7, "category": "restaurant", "emojis": "\ud83e\udd20|\ud83c\udf36\ufe0f|\ud83d\udc4b\ud83c\udffe"},
{"name": "Pla\u00e7a de Catalunya", "city": "Sydney", "lat": -34.0, "long": 151.0, "category": "attraction", "emojis": "\ud83d\udc4c\ud83c\udffc|\ud83d\udc4d\ud83c\udffc"},
{"name": "Palau de la M\u00fasica Catalana", "city": "Hobart", "lat": -42.86666666666667, "long": 147.31666666666666, "category": "attraction", "emojis": "\ud83d\udc4d\ud83c\udffd|\ud83d\udc4b\ud83c\udfff|\ud83d\ude42"},
{"name": "Parc de la Ciutadella", "city": "Tokyo", "lat": 35.666666666666664, "long": 139.75, "category": "attraction", "emojis": "\ud83d\ude1a|\ud83d\udc4d\ud83c\udfff|\ud83d\ude1b"},
{"name": "Barcelona Zoo", "city": "Rangoon", "lat": 16.833333333333332, "long": 96.0, "category": "attraction", "emojis": "\ud83c\udf1e"},
{"name": "Barnabier", "city": "Vienna", "lat": 48.233333333333334, "long": 16.333333333333332, "category": "restaurant", "emojis": "\ud83d\ude18|\ud83e\udd19|\ud83d\udc4c\ud83c\udffc"},
{"name": "Hard Rock Cafe Barcelona", "city": "Manchester", "lat": 53.5, "long": -2.25, "category": "restaurant", "emojis": "\ud83c\uddf5\ud83c\uddf9"},
{"name": "Maybe Barcelona", "city": "Leeds", "lat": 53.75, "long": -1.5, "category": "attraction", "emojis": "\ud83d\udc4d\ud83c\udffd|\ud83e\udd1f"},
{"name": "O Meu Lar Restaurant", "city": "Bordeaux", "lat": 44.833333333333336, "long": -0.5166666666666667, "category": "restaurant", "emojis": "\ud83e\udd19|\ud83d\udc91"},
{"name": "CDLC", "city": "Madrid", "lat": 40.43333333333333, "long": -3.7, "category": "restaurant", "emojis": "\ud83d\udc4b\ud83c\udffe|\ud83d\udd1d"},
{"name": "G\u00fcell Palace", "city": "Manchester", "lat": 53.5, "long": -2.25, "category": "attraction", "emojis": "\ud83d\uddfc|\ud83d\udc8f"},
{"name": "Starbucks", "city": "Manchester", "lat": 53.5, "long": -2.25, "category": "restaurant", "emojis": "\ud83d\udc4c\ud83c\udffd|\ud83e\udd1e"},
{"name": "ABaC Restaurant & Hotel", "city": "Mazatl\u00e1n", "lat": 23.2, "long": -106.41666666666667, "category": "restaurant", "emojis": "\u270c\ufe0f|\ud83d\udc4c\ud83c\udffe"},
{"name": "Pla\u00e7a de Catalunya", "city": "Lisbon", "lat": 38.733333333333334, "long": -9.15, "category": "attraction", "emojis": "\ud83d\ude44"},
{"name": "Maitea", "city": "Djibouti", "lat": 11.5, "long": 43.05, "category": "restaurant", "emojis": "\ud83d\udc4b\ud83c\udfff|\ud83d\udc4d\ud83c\udffc|\ud83d\ude1b"},
{"name": "Los Caracoles", "city": "Lyons", "lat": 45.75, "long": 4.833333333333333, "category": "restaurant", "emojis": "\ud83d\ude19"},
{"name": "Mirablau", "city": "Iquique", "lat": -20.166666666666668, "long": -70.11666666666666, "category": "restaurant", "emojis": "\ud83d\udc4d\ud83c\udffd"},
{"name": "Sagardi BCN Gotic", "city": "Berlin", "lat": 52.5, "long": 13.416666666666666, "category": "restaurant", "emojis": "\ud83d\ude1a"},
{"name": "Bar Mut", "city": "Marseilles", "lat": 43.333333333333336, "long": 5.333333333333333, "category": "restaurant", "emojis": "\ud83c\uddee\ud83c\uddea"},
{"name": "Galeria Manbrot", "city": "Johannesburg", "lat": -26.2, "long": 28.066666666666666, "category": "attraction", "emojis": "\ud83d\ude1c"},
{"name": "Quimet & Quimet", "city": "Manchester", "lat": 53.5, "long": -2.25, "category": "restaurant", "emojis": "\ud83d\udd2b"},
{"name": "41\u00b0", "city": "Cayenne", "lat": 4.816666666666666, "long": -52.3, "category": "restaurant", "emojis": "\u270c\ufe0f|\ud83d\ude19"},
{"name": "Palau de la M\u00fasica Catalana", "city": "Nairobi", "lat": -1.4166666666666667, "long": 36.916666666666664, "category": "attraction", "emojis": "\ud83d\ude1a|\ud83d\udc4b\ud83c\udffb|\ud83d\ude1a"},
{"name": "Barcel\u00f3 Raval", "city": "Athens", "lat": 37.96666666666667, "long": 23.716666666666665, "category": "restaurant", "emojis": "\ud83d\ude1c|\ud83d\udc8f|\ud83c\udf36\ufe0f"},
{"name": "Luz de Gas", "city": "Cairo", "lat": 30.033333333333335, "long": 31.35, "category": "attraction", "emojis": "\ud83d\udc4c\ud83c\udffc|\ud83d\udc4d\ud83c\udffb|\ud83d\ude43"},
{"name": "Passeig 9", "city": "Osaka", "lat": 34.53333333333333, "long": 135.5, "category": "restaurant", "emojis": "\ud83d\udc4b\ud83c\udffc|\ud83d\udc4d\ud83c\udffc|\ud83d\udc8f"},
{"name": "Bar Ca\u00f1ete", "city": "Caracas", "lat": 10.466666666666667, "long": -67.03333333333333, "category": "restaurant", "emojis": "\ud83d\ude44|\ud83d\udc4d\ud83c\udffe"},
{"name": "Hard Rock Cafe Barcelona", "city": "Santiago", "lat": -33.46666666666667, "long": -70.75, "category": "restaurant", "emojis": "\ud83d\ude1a|\ud83d\udc4c\ud83c\udffe|\ud83d\ude42"},
{"name": "Disney Magic en Barcelona", "city": "C\u00f3rdoba", "lat": -31.466666666666665, "long": -64.16666666666667, "category": "poi", "emojis": "\ud83d\udc4b\ud83c\udfff|\ud83d\ude8c|\ud83d\udc90"},
{"name": "Daps", "city": "Salvador", "lat": -12.933333333333334, "long": -38.45, "category": "restaurant", "emojis": "\ud83d\udc4b\ud83c\udffb|\ud83d\udc4d\ud83c\udffd|\ud83d\udc4b\ud83c\udffe"},
{"name": "Mosquito", "city": "Glasgow", "lat": 55.833333333333336, "long": -4.25, "category": "restaurant", "emojis": "\ud83d\udc4c\ud83c\udffb|\ud83d\udc4d\ud83c\udffd"},
{"name": "Parc de la Ciutadella", "city": "Lima", "lat": -12.0, "long": -77.03333333333333, "category": "attraction", "emojis": "\ud83d\udc4d\ud83c\udfff"},
{"name": "Barcelona House Experience", "city": "S\u00e3o Paulo", "lat": -23.516666666666666, "long": -46.516666666666666, "category": "accommodation", "emojis": "\ud83d\udc80|\ud83d\udc4d\ud83c\udfff"},
{"name": "Bracaf\u00e9", "city": "Moscow", "lat": 55.75, "long": 37.6, "category": "restaurant", "emojis": "\ud83d\ude1b|\u270c\ufe0f|\ud83d\ude42"},
{"name": "Choquito", "city": "Aberdeen", "lat": 57.15, "long": -2.15, "category": "restaurant", "emojis": "\ud83d\udce6|\ud83d\udc4d\ud83c\udfff"},
{"name": "Sagrada Fam\u00edlia", "city": "Ankara", "lat": 39.916666666666664, "long": 32.916666666666664, "category": "attraction", "emojis": "\ud83d\udc4d\ud83c\udfff|\ud83d\udc8f|\ud83d\ude00"},
{"name": "Maybe Barcelona", "city": "Lima", "lat": -12.0, "long": -77.03333333333333, "category": "attraction", "emojis": "\ud83d\udc4b\ud83c\udffe|\ud83d\ude18"},
{"name": "Elsa y Fred", "city": "Salvador", "lat": -12.933333333333334, "long": -38.45, "category": "restaurant", "emojis": "\ud83d\ude42"},
{"name": "Cosmo", "city": "Bremen", "lat": 53.083333333333336, "long": 8.816666666666666, "category": "restaurant", "emojis": "\ud83d\ude01|\u270c\ufe0f|\u270c\ufe0f"},
{"name": "Marmalade", "city": "Vladivostok", "lat": 43.166666666666664, "long": 132.0, "category": "restaurant", "emojis": "\ud83d\ude43"},
{"name": "Frankie & Benny's Restaurant", "city": "Madrid", "lat": 40.43333333333333, "long": -3.7, "category": "restaurant", "emojis": "\ud83d\ude1b|\ud83d\udc91|\ud83d\ude1c"},
{"name": "Mies van der Rohe Pavilion", "city": "Chongqing", "lat": 29.766666666666666, "long": 106.56666666666666, "category": "attraction", "emojis": "\ud83d\ude01|\u2764\ufe0f|\ud83d\udc4c\ud83c\udffd"},
{"name": "Frankfurt Pedralbes", "city": "New Delhi", "lat": 28.583333333333332, "long": 77.2, "category": "restaurant", "emojis": "\u270b|\ud83d\udc8f|\ud83d\ude1b"},
{"name": "Picasso Museum", "city": "Chongqing", "lat": 29.766666666666666, "long": 106.56666666666666, "category": "attraction", "emojis": "\ud83d\udc4c\ud83c\udffe|\ud83d\ude1b|\ud83e\udd1e"},
{"name": "The Sutton Club", "city": "Munich", "lat": 48.13333333333333, "long": 11.583333333333334, "category": "attraction", "emojis": "\ud83d\udc4d\ud83c\udffb|\ud83e\udd20|\ud83d\udc4c\ud83c\udffd"},
{"name": "La Fonda", "city": "Amsterdam", "lat": 52.36666666666667, "long": 4.883333333333333, "category": "restaurant", "emojis": "\ud83d\udcac"},
{"name": "Pla\u00e7a de Catalunya", "city": "Barcelona", "lat": 41.38333333333333, "long": 2.15, "category": "attraction", "emojis": "\u2764\ufe0f"},
{"name": "Maitea", "city": "Milan", "lat": 45.45, "long": 9.166666666666666, "category": "restaurant", "emojis": "\ud83d\ude00|\ud83d\ude1c|\ud83d\udc91"},
{"name": "Museu Nacional d'Art de Catalunya", "city": "Newcastle-on-Tyne", "lat": 54.96666666666667, "long": -1.6166666666666667, "category": "attraction", "emojis": "\ud83d\ude00|\ud83d\ude42"},
{"name": "Sagrada Fam\u00edlia", "city": "Barcelona", "lat": 41.38333333333333, "long": 2.15, "category": "attraction", "emojis": "\ud83d\ude00|\ud83c\udf7a|\ud83d\udc4c\ud83c\udffd"},
{"name": "El Fornet de Can Rom\u00e0", "city": "La Paz", "lat": -16.45, "long": -68.36666666666666, "category": "restaurant", "emojis": "\ud83d\udc4c\ud83c\udffc|\ud83d\ude1b"},
{"name": "Ca\u00f1as y Tapas", "city": "Brussels", "lat": 50.86666666666667, "long": 4.366666666666666, "category": "restaurant", "emojis": "\ud83d\udc4c\ud83c\udffe|\ud83e\udd1e"},
{"name": "La Flauta", "city": "Kuala Lumpur", "lat": 3.1333333333333333, "long": 101.7, "category": "restaurant", "emojis": "\ud83d\udc4c\ud83c\udffc|\ud83d\udc4b\ud83c\udffe|\ud83d\ude1c"},
{"name": "Ciudad Condal", "city": "Hong Kong", "lat": 22.333333333333332, "long": 114.18333333333334, "category": "restaurant", "emojis": "\ud83d\udc4d\ud83c\udffd"},
{"name": "Casa Vicens", "city": "Liverpool", "lat": 53.416666666666664, "long": -3.0, "category": "attraction", "emojis": "\ud83d\udc4c\ud83c\udffc|\ud83e\udd20|\ud83d\ude44"},
{"name": "The Mirror Barcelona", "city": "Cairo", "lat": 30.033333333333335, "long": 31.35, "category": "restaurant", "emojis": "\ud83d\udc4b\ud83c\udfff|\ud83d\udc4b\ud83c\udffb|\u2764\ufe0f"},
{"name": "Can Paixano", "city": "Aberdeen", "lat": 57.15, "long": -2.15, "category": "restaurant", "emojis": "\ud83d\udc4d\ud83c\udfff|\ud83d\udc4c\ud83c\udffd"},
{"name": "Casa Museu Gaud\u00ed", "city": "Chongqing", "lat": 29.766666666666666, "long": 106.56666666666666, "category": "attraction", "emojis": "\ud83d\udc91|\ud83d\udc4d\ud83c\udffe"},
{"name": "41\u00b0", "city": "Edinburgh", "lat": 55.916666666666664, "long": -3.1666666666666665, "category": "restaurant", "emojis": "\ud83d\udc4d\ud83c\udffd|\ud83d\udc4d\ud83c\udffe|\u2764\ufe0f"},
{"name": "Paco Meralgo", "city": "Mecca", "lat": 21.483333333333334, "long": 39.75, "category": "restaurant", "emojis": "\ud83d\udc4d\ud83c\udffc|\ud83d\ude00|\ud83d\udc4b\ud83c\udffd"},
{"name": "Sagrada Fam\u00edlia", "city": "Shanghai", "lat": 31.166666666666668, "long": 121.46666666666667, "category": "attraction", "emojis": "\ud83d\udc8f|\ud83d\udc4c\ud83c\udfff|\ud83d\udc4d\ud83c\udffb"},
{"name": "La Candela", "city": "Manchester", "lat": 53.5, "long": -2.25, "category": "restaurant", "emojis": "\ud83d\udc4a"},
{"name": "Bar Lobo", "city": "Melbourne", "lat": -37.78333333333333, "long": 144.96666666666667, "category": "restaurant", "emojis": "\ud83d\ude00|\ud83c\udf36\ufe0f|\ud83d\udc4c\ud83c\udfff"},
{"name": "Dostrece Restaurant", "city": "Bel\u00e9m", "lat": -1.4666666666666668, "long": -48.483333333333334, "category": "restaurant", "emojis": "\u2764\ufe0f"},
{"name": "Margarita Blue", "city": "Iquique", "lat": -20.166666666666668, "long": -70.11666666666666, "category": "restaurant", "emojis": "\ud83d\udc4b\ud83c\udffe|\ud83d\ude18|\ud83d\udc4d\ud83c\udffd"},
{"name": "Cuines Santa Caterina", "city": "Tripoli", "lat": 32.95, "long": 13.2, "category": "restaurant", "emojis": "\ud83d\ude44"},
{"name": "Sagrada Fam\u00edlia", "city": "Marseilles", "lat": 43.333333333333336, "long": 5.333333333333333, "category": "attraction", "emojis": "\ud83d\udc91"},
{"name": "Rosa Negra", "city": "Bristol", "lat": 51.46666666666667, "long": -2.5833333333333335, "category": "restaurant", "emojis": "\ud83d\ude1c|\ud83d\ude18|\u2764\ufe0f"},
{"name": "The George Payne Irish Bar", "city": "Tripoli", "lat": 32.95, "long": 13.2, "category": "restaurant", "emojis": "\ud83d\udc4d\ud83c\udffe|\u270b"},
{"name": "Parc del Centre del Poblenou", "city": "Cape Town", "lat": -33.916666666666664, "long": 18.366666666666667, "category": "attraction", "emojis": "\ud83d\udc09|\u270c\ufe0f|\ud83d\udc4d\ud83c\udffb"},
{"name": "Hard Rock Cafe Barcelona", "city": "Moscow", "lat": 55.75, "long": 37.6, "category": "restaurant", "emojis": "\ud83d\ude18|\ud83d\ude1a|\ud83e\udd19"},
{"name": "Parc G\u00fcell", "city": "Stockholm", "lat": 59.28333333333333, "long": 18.05, "category": "attraction", "emojis": "\ud83d\udc4b\ud83c\udffb|\ud83c\uddee\ud83c\uddf1|\ud83d\ude1a"},
{"name": "Kiosko", "city": "Djibouti", "lat": 11.5, "long": 43.05, "category": "restaurant", "emojis": "\ud83d\ude1a|\ud83d\ude43|\ud83d\ude19"},
{"name": "Starbucks", "city": "La Paz", "lat": -16.45, "long": -68.36666666666666, "category": "restaurant", "emojis": "\ud83d\ude1a|\ud83d\udc4d\ud83c\udfff|\ud83d\ude18"},
{"name": "Barcelona Zoo", "city": "Shanghai", "lat": 31.166666666666668, "long": 121.46666666666667, "category": "attraction", "emojis": "\u270b"},
{"name": "Caf\u00e9 Salamb\u00f3", "city": "Amsterdam", "lat": 52.36666666666667, "long": 4.883333333333333, "category": "restaurant", "emojis": "\ud83d\udc4c\ud83c\udffb|\ud83c\udf5a"},
{"name": "La Cigale", "city": "New Delhi", "lat": 28.583333333333332, "long": 77.2, "category": "restaurant", "emojis": "\ud83d\udd52"},
{"name": "Renoir Floridablanca", "city": "Djibouti", "lat": 11.5, "long": 43.05, "category": "attraction", "emojis": "\ud83d\udc4c\ud83c\udffe|\ud83d\udc4d\ud83c\udffc"},
{"name": "Tapas Locas", "city": "Manchester", "lat": 53.5, "long": -2.25, "category": "restaurant", "emojis": "\ud83d\udc4d\ud83c\udffc|\ud83d\ude1a"},
{"name": "La Flauta", "city": "Bogot\u00e1", "lat": 4.533333333333333, "long": -74.25, "category": "restaurant", "emojis": "\ud83d\udc4b\ud83c\udffe|\ud83d\udec0|\ud83d\ude1a"},
{"name": "Casa Amatller", "city": "S\u00e3o Paulo", "lat": -23.516666666666666, "long": -46.516666666666666, "category": "attraction", "emojis": "\ud83d\ude18|\ud83d\udc4c\ud83c\udffb"},
{"name": "Hard Rock Cafe Barcelona", "city": "Salvador", "lat": -12.933333333333334, "long": -38.45, "category": "restaurant", "emojis": "\ud83c\uddf5\ud83c\uddf8"},
{"name": "Exotics Cl\u00ednica Veterinaria", "city": "S\u00e3o Paulo", "lat": -23.516666666666666, "long": -46.516666666666666, "category": "poi", "emojis": "\ud83c\udf31|\ud83d\ude18"},
{"name": "El Tragaluz", "city": "Cayenne", "lat": 4.816666666666666, "long": -52.3, "category": "restaurant", "emojis": "\ud83d\udc4c\ud83c\udffd|\ud83d\ude95"},
{"name": "CDLC", "city": "Irkutsk", "lat": 52.5, "long": 104.33333333333333, "category": "restaurant", "emojis": "\ud83d\ude44"},
{"name": "La Fonda", "city": "Tokyo", "lat": 35.666666666666664, "long": 139.75, "category": "restaurant", "emojis": "\ud83c\udfe0|\ud83d\udc4b\ud83c\udffd"},
{"name": "Rambla de Sant Andreu", "city": "Salvador", "lat": -12.933333333333334, "long": -38.45, "category": "poi", "emojis": "\ud83d\udc4d\ud83c\udffe|\ud83d\udc4d\ud83c\udffb|\ud83e\udd19"},
{"name": "Alsur Caf\u00e9 (El Born)", "city": "Milan", "lat": 45.45, "long": 9.166666666666666, "category": "restaurant", "emojis": "\ud83e\udd1e|\ud83d\ude1b|\ud83e\udd20"},
{"name": "Roig Rob\u00ed", "city": "Budapest", "lat": 47.5, "long": 19.083333333333332, "category": "restaurant", "emojis": "\ud83d\udc4d\ud83c\udffb|\u2764\ufe0f|\ud83d\ude1c"},
{"name": "Cervecer\u00eda Catalana", "city": "Canton", "lat": 23.116666666666667, "long": 113.25, "category": "restaurant", "emojis": "\ud83d\ude1c|\ud83d\ude1c|\ud83d\ude1c"},
{"name": "La Vietnamita Born", "city": "Mexico City", "lat": 19.433333333333334, "long": -99.11666666666666, "category": "restaurant", "emojis": "\u270b|\ud83d\udc4b\ud83c\udfff|\ud83d\udc91"},
{"name": "City Hall", "city": "Marseilles", "lat": 43.333333333333336, "long": 5.333333333333333, "category": "attraction", "emojis": "\ud83e\udd20"},
{"name": "Parc de la Ciutadella", "city": "Moscow", "lat": 55.75, "long": 37.6, "category": "attraction", "emojis": "\ud83d\udc4c\ud83c\udfff|\ud83d\udc91|\ud83c\udf36\ufe0f"},
{"name": "Casa Mil\u00e0", "city": "Paramaribo", "lat": 5.75, "long": -55.25, "category": "attraction", "emojis": "\ud83d\udce6|\ud83d\ude1b|\ud83d\ude19"},
{"name": "Pla\u00e7a Reial", "city": "Havana", "lat": 23.133333333333333, "long": -82.38333333333334, "category": "attraction", "emojis": "\ud83d\ude1a|\ud83d\ude8c"},
{"name": "Cinesa Diagonal Mar", "city": "Perth", "lat": -31.95, "long": 115.86666666666666, "category": "attraction", "emojis": "\ud83d\udc4c\ud83c\udfff|\ud83d\ude44"},
{"name": "The Sutton Club", "city": "Belgrade", "lat": 44.86666666666667, "long": 20.533333333333335, "category": "attraction", "emojis": "\ud83d\udc4c\ud83c\udffe|\u270c\ufe0f|\ud83c\udf3d"},
{"name": "Marsella", "city": "Munich", "lat": 48.13333333333333, "long": 11.583333333333334, "category": "restaurant", "emojis": "\ud83e\udd20|\ud83d\ude42|\ud83d\ude42"},
{"name": "The George Payne Irish Bar", "city": "Nairobi", "lat": -1.4166666666666667, "long": 36.916666666666664, "category": "restaurant", "emojis": "\ud83d\udc8f|\ud83d\udc4d\ud83c\udffc|\ud83d\udc4b\ud83c\udffc"},
{"name": "Cinesa Diagonal Mar", "city": "Djibouti", "lat": 11.5, "long": 43.05, "category": "attraction", "emojis": "\ud83d\udebb|\ud83d\ude1b|\ud83e\udd19"},
{"name": "Quimet & Quimet", "city": "Hobart", "lat": -42.86666666666667, "long": 147.31666666666666, "category": "restaurant", "emojis": "\ud83d\udca1|\ud83d\ude19"},
{"name": "El Rey de la Gamba", "city": "Djibouti", "lat": 11.5, "long": 43.05, "category": "restaurant", "emojis": "\ud83e\udd19|\ud83d\uded2"},
{"name": "Cera 23 Restaurant", "city": "Frankfurt", "lat": 50.11666666666667, "long": 8.683333333333334, "category": "restaurant", "emojis": "\ud83d\udc4c\ud83c\udfff|\u270c\ufe0f|\ud83d\ude00"},
{"name": "Bar Ca\u00f1ete", "city": "Madrid", "lat": 40.43333333333333, "long": -3.7, "category": "restaurant", "emojis": "\ud83d\ude1b|\ud83d\udc4c\ud83c\udffc"},
{"name": "La Vietnamita", "city": "Paramaribo", "lat": 5.75, "long": -55.25, "category": "restaurant", "emojis": "\ud83d\udc4d\ud83c\udffe|\ud83d\ude43|\ud83d\ude1b"},
{"name": "Borneo", "city": "Singapore", "lat": 1.2333333333333334, "long": 103.91666666666667, "category": "restaurant", "emojis": "\ud83d\udc91|\ud83d\udc4b\ud83c\udfff"},
{"name": "Maybe Barcelona", "city": "Dakar", "lat": 14.666666666666666, "long": -17.466666666666665, "category": "attraction", "emojis": "\ud83e\udd1f"},
{"name": "Hard Rock Cafe Barcelona", "city": "Nagoya", "lat": 35.11666666666667, "long": 136.93333333333334, "category": "restaurant", "emojis": "\ud83d\udc4d\ud83c\udffc"},
{"name": "Tramonti 1980", "city": "Chongqing", "lat": 29.766666666666666, "long": 106.56666666666666, "category": "restaurant", "emojis": "\ud83d\udc4b\ud83c\udffc"},
{"name": "Cuines Santa Caterina", "city": "Manila", "lat": 14.583333333333334, "long": 120.95, "category": "restaurant", "emojis": "\u2764\ufe0f|\ud83d\udc4b\ud83c\udffc|\ud83e\udd20"},
{"name": "Bilbao Berria", "city": "Plymouth", "lat": 50.416666666666664, "long": -4.083333333333333, "category": "restaurant", "emojis": "\ud83d\udeb6|\u2764\ufe0f|\ud83d\udc4d\ud83c\udffc"},
{"name": "La Piazzenza", "city": "Chongqing", "lat": 29.766666666666666, "long": 106.56666666666666, "category": "restaurant", "emojis": "\ud83d\udc4d\ud83c\udffe|\ud83d\udc4c\ud83c\udffe|\ud83c\udfc4"},
{"name": "La Gavina", "city": "Amsterdam", "lat": 52.36666666666667, "long": 4.883333333333333, "category": "restaurant", "emojis": "\ud83d\udc4c\ud83c\udffd|\ud83d\udc4b\ud83c\udffc"},
{"name": "Barraval Restaurant", "city": "Amsterdam", "lat": 52.36666666666667, "long": 4.883333333333333, "category": "restaurant", "emojis": "\ud83d\udecd|\ud83d\udc4d\ud83c\udfff"},
{"name": "Pim Pam Burger", "city": "Lima", "lat": -12.0, "long": -77.03333333333333, "category": "restaurant", "emojis": "\ud83d\ude1c"},
{"name": "Parc G\u00fcell", "city": "Djibouti", "lat": 11.5, "long": 43.05, "category": "attraction", "emojis": "\ud83d\udc4d\ud83c\udffb|\ud83d\udc4d\ud83c\udffe"},
{"name": "Taverna El Glop", "city": "Mazatl\u00e1n", "lat": 23.2, "long": -106.41666666666667, "category": "restaurant", "emojis": "\ud83d\udc4b\ud83c\udfff"},
{"name": "CosmoCaixa", "city": "Liverpool", "lat": 53.416666666666664, "long": -3.0, "category": "attraction", "emojis": "\ud83d\ude19|\ud83d\udc4b\ud83c\udffb"},
{"name": "Flaires del caf\u00e8", "city": "Kuala Lumpur", "lat": 3.1333333333333333, "long": 101.7, "category": "restaurant", "emojis": "\ud83d\udc4b\ud83c\udffe|\ud83d\udc91|\ud83d\udc4c\ud83c\udffd"},
{"name": "Rosti Restaurant", "city": "Mazatl\u00e1n", "lat": 23.2, "long": -106.41666666666667, "category": "restaurant", "emojis": "\ud83c\udf7b"},
{"name": "Choquito", "city": "Hammerfest", "lat": 70.63333333333334, "long": 23.633333333333333, "category": "restaurant", "emojis": "\ud83d\ude19"},
{"name": "Nanaya Restaurant", "city": "Budapest", "lat": 47.5, "long": 19.083333333333332, "category": "restaurant", "emojis": "\ud83d\ude1a|\ud83d\udc4b\ud83c\udffd|\ud83d\ude43"},
{"name": "NAP", "city": "Sydney", "lat": -34.0, "long": 151.0, "category": "restaurant", "emojis": "\ud83d\ude1b"},
{"name": "Frankfurt Pedralbes", "city": "Warsaw", "lat": 52.233333333333334, "long": 21.0, "category": "restaurant", "emojis": "\u270b|\ud83d\udc4d\ud83c\udffe"},
{"name": "Casa Amatller", "city": "Tripoli", "lat": 32.95, "long": 13.2, "category": "attraction", "emojis": "\ud83e\udd19|\u2764\ufe0f"},
{"name": "Museu Nacional d'Art de Catalunya", "city": "Hong Kong", "lat": 22.333333333333332, "long": 114.18333333333334, "category": "attraction", "emojis": "\ud83c\udf86|\ud83d\udc4b\ud83c\udffc|\ud83e\udd1e"},
{"name": "Flaherty\u00b4s Irish Pub", "city": "Bel\u00e9m", "lat": -1.4666666666666668, "long": -48.483333333333334, "category": "restaurant", "emojis": "\ud83d\ude44|\ud83d\udc4b\ud83c\udffb|\ud83d\ude1c"},
{"name": "Milk Bar & Bistro Restaurant", "city": "Paris", "lat": 48.8, "long": 2.3333333333333335, "category": "restaurant", "emojis": "\ud83d\udc91|\ud83d\ude1c|\ud83d\ude19"},
{"name": "Maybe Barcelona", "city": "Paramaribo", "lat": 5.75, "long": -55.25, "category": "attraction", "emojis": "\ud83d\udc4b\ud83c\udffb|\ud83e\udd20|\ud83e\udd19"},
{"name": "Hard Rock Cafe Barcelona", "city": "Vienna", "lat": 48.233333333333334, "long": 16.333333333333332, "category": "restaurant", "emojis": "\ud83d\ude01|\ud83d\udc4d\ud83c\udffb"},
{"name": "Sagrada Fam\u00edlia", "city": "Rome", "lat": 41.9, "long": 12.45, "category": "attraction", "emojis": "\ud83d\udc4b\ud83c\udfff|\ud83d\udc4d\ud83c\udffb"},
{"name": "Can Paixano", "city": "Hamburg", "lat": 53.55, "long": 10.033333333333333, "category": "restaurant", "emojis": "\ud83d\ude1a|\ud83d\udc91|\ud83d\ude1b"},
{"name": "Picasso Museum", "city": "Athens", "lat": 37.96666666666667, "long": 23.716666666666665, "category": "attraction", "emojis": "\ud83e\udd20"},
{"name": "El Xampanyet", "city": "S\u00e3o Paulo", "lat": -23.516666666666666, "long": -46.516666666666666, "category": "restaurant", "emojis": "\u270c\ufe0f|\u2764\ufe0f|\ud83d\ude1c"},
{"name": "Ciudad Condal", "city": "Manila", "lat": 14.583333333333334, "long": 120.95, "category": "restaurant", "emojis": "\ud83c\udf4e|\ud83c\udf2a|\ud83d\udeb2"},
{"name": "7 Portes", "city": "Venice", "lat": 45.43333333333333, "long": 12.333333333333334, "category": "restaurant", "emojis": "\ud83d\udc8f|\ud83e\udd20|\ud83d\ude00"},
{"name": "Toyo", "city": "Durban", "lat": -29.883333333333333, "long": 30.883333333333333, "category": "restaurant", "emojis": "\ud83d\udc4c\ud83c\udfff|\ud83d\ude1a|\ud83d\udc91"},
{"name": "Casa Amatller", "city": "Chihuahua", "lat": 28.616666666666667, "long": -106.08333333333333, "category": "attraction", "emojis": "\ud83d\ude44"},
{"name": "Taste Of America", "city": "Darwin", "lat": -12.466666666666667, "long": 130.85, "category": "restaurant", "emojis": "\ud83d\udc4d\ud83c\udffb"},
{"name": "Casa Terrades (Casa de les Punxes)", "city": "Hamburg", "lat": 53.55, "long": 10.033333333333333, "category": "poi", "emojis": "\ud83d\udc4c\ud83c\udffb|\ud83d\udc8f|\ud83d\udc4b\ud83c\udffb"},
{"name": "Centre Comercial Arenas de Barcelona", "city": "Port Moresby", "lat": -9.416666666666666, "long": 147.13333333333333, "category": "attraction", "emojis": "\ud83d\udc4b\ud83c\udffd"},
{"name": "Cervecer\u00eda Catalana", "city": "Naples", "lat": 40.833333333333336, "long": 14.25, "category": "restaurant", "emojis": "\ud83d\udc4b\ud83c\udfff|\ud83d\ude1c"},
{"name": "La Dol\u00e7a Herm\u00ednia Restaurant", "city": "Moscow", "lat": 55.75, "long": 37.6, "category": "restaurant", "emojis": "\ud83d\udc4b\ud83c\udfff|\ud83d\udc4c\ud83c\udffc"},
{"name": "Mirablau", "city": "Berlin", "lat": 52.5, "long": 13.416666666666666, "category": "restaurant", "emojis": "\ud83d\udc4d\ud83c\udffd|\ud83d\udc4b\ud83c\udffb"},
{"name": "Restaurant Agua", "city": "Chihuahua", "lat": 28.616666666666667, "long": -106.08333333333333, "category": "restaurant", "emojis": "\ud83d\udc4c\ud83c\udffe"},
{"name": "Aire de Barcelona", "city": "Rome", "lat": 41.9, "long": 12.45, "category": "attraction", "emojis": "\ud83d\udc4d\ud83c\udfff"},
{"name": "Centro de Cultura Contempor\u00e1nea de Barcelona", "city": "Shanghai", "lat": 31.166666666666668, "long": 121.46666666666667, "category": "attraction", "emojis": "\ud83d\udc8f|\ud83d\udc4b\ud83c\udffb|\ud83d\udc4b\ud83c\udffb"},
{"name": "Sagrada Fam\u00edlia", "city": "Moscow", "lat": 55.75, "long": 37.6, "category": "attraction", "emojis": "\ud83d\udc4d\ud83c\udffd|\ud83d\ude43"},
{"name": "Vintus", "city": "Kuala Lumpur", "lat": 3.1333333333333333, "long": 101.7, "category": "restaurant", "emojis": "\ud83e\udd20|\ud83d\ude18|\ud83d\udc4b\ud83c\udffd"},
{"name": "Euskal Etxea (Restaurant)", "city": "Nanjing (Nanking)", "lat": 32.05, "long": 118.88333333333334, "category": "restaurant", "emojis": "\ud83d\udc4c\ud83c\udffb|\ud83d\udc4c\ud83c\udfff"},
{"name": "Rekons Urgell", "city": "Milan", "lat": 45.45, "long": 9.166666666666666, "category": "restaurant", "emojis": "\u2764\ufe0f|\ud83e\udd19"},
{"name": "Pla\u00e7a de Catalunya", "city": "Adelaide", "lat": -34.916666666666664, "long": 138.6, "category": "attraction", "emojis": "\ud83c\udde7\ud83c\uddea"},
{"name": "Cervecer\u00eda Catalana", "city": "Cape Town", "lat": -33.916666666666664, "long": 18.366666666666667, "category": "restaurant", "emojis": "\ud83d\udc4b\ud83c\udffe|\ud83d\udc66"},
{"name": "Otto Zutz", "city": "Belgrade", "lat": 44.86666666666667, "long": 20.533333333333335, "category": "attraction", "emojis": "\ud83d\udc91|\ud83d\udc4c\ud83c\udffb|\ud83d\udc4b\ud83c\udffd"},
{"name": "El Patio Andaluz", "city": "Hong Kong", "lat": 22.333333333333332, "long": 114.18333333333334, "category": "restaurant", "emojis": "\ud83d\ude18|\ud83c\udf36\ufe0f|\ud83e\udd20"},
{"name": "Paco Meralgo", "city": "S\u00e3o Paulo", "lat": -23.516666666666666, "long": -46.516666666666666, "category": "restaurant", "emojis": "\ud83d\udc4c\ud83c\udffe"},
{"name": "Pla\u00e7a de Catalunya", "city": "Kuala Lumpur", "lat": 3.1333333333333333, "long": 101.7, "category": "attraction", "emojis": "\ud83d\udc4d\ud83c\udffb|\ud83d\udc4b\ud83c\udffd|\ud83d\udc4b\ud83c\udffd"},
{"name": "CosmoCaixa", "city": "Venice", "lat": 45.43333333333333, "long": 12.333333333333334, "category": "attraction", "emojis": "\ud83e\udd1f|\ud83d\ude00"},
{"name": "Montju\u00efc Castle", "city": "Leeds", "lat": 53.75, "long": -1.5, "category": "attraction", "emojis": "\ud83d\ude1a|\ud83e\udd1e"},
{"name": "Botafumeiro", "city": "Odessa", "lat": 46.45, "long": 30.8, "category": "restaurant", "emojis": "\ud83d\ude1c|\ud83c\udf56"},
{"name": "Margarita Blue", "city": "Odessa", "lat": 46.45, "long": 30.8, "category": "restaurant", "emojis": "\ud83d\udc4d\ud83c\udffb|\ud83d\udc4c\ud83c\udffe|\u2764\ufe0f"},
{"name": "Parc G\u00fcell", "city": "Munich", "lat": 48.13333333333333, "long": 11.583333333333334, "category": "attraction", "emojis": "\ud83d\udc4c\ud83c\udffd"},
{"name": "Flaherty\u00b4s Irish Pub", "city": "Manchester", "lat": 53.5, "long": -2.25, "category": "restaurant", "emojis": "\ud83d\ude00"},
{"name": "Barcelona Zoo", "city": "Calcutta", "lat": 22.566666666666666, "long": 88.4, "category": "attraction", "emojis": "\ud83e\udd1e|\ud83d\ude1c"},
{"name": "Da Greco", "city": "Munich", "lat": 48.13333333333333, "long": 11.583333333333334, "category": "restaurant", "emojis": "\ud83d\udc91|\ud83d\udc4b\ud83c\udffd"},
{"name": "Cuines Santa Caterina", "city": "Lisbon", "lat": 38.733333333333334, "long": -9.15, "category": "restaurant", "emojis": "\ud83d\ude42"},
{"name": "Ciudad Condal", "city": "Prague", "lat": 50.083333333333336, "long": 14.433333333333334, "category": "restaurant", "emojis": "\ud83c\udf36\ufe0f|\ud83e\udd19"},
{"name": "Jai-Ca", "city": "Darwin", "lat": -12.466666666666667, "long": 130.85, "category": "restaurant", "emojis": "\ud83e\udd20"},
{"name": "Margarita Blue", "city": "Lima", "lat": -12.0, "long": -77.03333333333333, "category": "restaurant", "emojis": "\ud83d\udc4c\ud83c\udffb|\ud83e\udd20|\ud83e\udd20"},
{"name": "Bar Oviso", "city": "Newcastle-on-Tyne", "lat": 54.96666666666667, "long": -1.6166666666666667, "category": "restaurant", "emojis": "\ud83d\udc4b\ud83c\udffb|\u2764\ufe0f"},
{"name": "Parc G\u00fcell", "city": "Bordeaux", "lat": 44.833333333333336, "long": -0.5166666666666667, "category": "attraction", "emojis": "\ud83d\udc4d\ud83c\udffc|\ud83d\udc8f"},
{"name": "Starbucks", "city": "Irkutsk", "lat": 52.5, "long": 104.33333333333333, "category": "restaurant", "emojis": "\u270b|\ud83d\udc4b\ud83c\udffe|\ud83d\ude18"},
{"name": "La Flauta", "city": "Caracas", "lat": 10.466666666666667, "long": -67.03333333333333, "category": "restaurant", "emojis": "\ud83d\udc4b\ud83c\udffd"},
{"name": "Alsur Caf\u00e9 (El Born)", "city": "Mecca", "lat": 21.483333333333334, "long": 39.75, "category": "restaurant", "emojis": "\ud83d\ude00|\ud83d\ude18|\ud83d\ude43"},
{"name": "Braseria Suyapa", "city": "Manila", "lat": 14.583333333333334, "long": 120.95, "category": "restaurant", "emojis": "\ud83e\udd19|\ud83d\udc91"},
{"name": "Parc de Joan Mir\u00f3", "city": "Guayaquil", "lat": -2.1666666666666665, "long": -79.93333333333334, "category": "attraction", "emojis": "\ud83c\udfca|\ud83d\udc91"},
{"name": "Centro de Cultura Contempor\u00e1nea de Barcelona", "city": "Oslo", "lat": 59.95, "long": 10.7, "category": "attraction", "emojis": "\ud83d\udc4b\ud83c\udffb|\ud83d\udc4d\ud83c\udffd"},
{"name": "La Candela", "city": "Rio de Janeiro", "lat": -22.95, "long": -43.2, "category": "restaurant", "emojis": "\ud83d\udc4b\ud83c\udffe|\ud83d\ude18"}]
