[{"name": "Starbucks", "city": "Barcelona", "lat": 41.385002576576575, "long": 2.172156900900901, "category": "restaurant", "emojis": "\ud83d\ude89|\ud83d\udd1c|\ud83c\uddf2\ud83c\uddfb"},
{"name": "Paso de Zebra festival", "city": "Barcelona", "lat": 41.40451204837297, "long": 2.107480490266577, "category": "attraction", "emojis": "\ud83d\udc0c|\ud83d\uddbc"},
{"name": "Cuines Santa Caterina", "city": "Barcelona", "lat": 41.38310284684685, "long": 2.1773143243243243, "category": "restaurant", "emojis": "\ud83d\udc43|\ud83c\uddf2\ud83c\uddfb|\ud83c\udf15"},
{"name": "Ciudad Condal", "city": "Barcelona", "lat": 41.3879090990991, "long": 2.162525720720721, "category": "restaurant", "emojis": "\ud83c\udfb9|\ud83c\udf2d|\ud83d\udd12"},
{"name": "Choquito", "city": "Barcelona", "lat": 41.379774522522524, "long": 2.173228675675676, "category": "restaurant", "emojis": "\ud83c\udfe2|\ud83d\udc67"},
{"name": "Mirablau", "city": "Barcelona", "lat": 41.41556854954955, "long": 2.134827927927928, "category": "restaurant", "emojis": "\ud83d\udc4f|\ud83d\udc59"},
{"name": "Rosa Negra", "city": "Barcelona", "lat": 41.38691945045045, "long": 2.1722246216216217, "category": "restaurant", "emojis": "\ud83c\udf77|\ud83c\udfe6"},
{"name": "Cuines Santa Caterina", "city": "Barcelona", "lat": 41.3835532972973, "long": 2.174836846846847, "category": "restaurant", "emojis": "\ud83d\udd12"},
{"name": "Pla\u00e7a Reial", "city": "Barcelona", "lat": 41.38055971525545, "long": 2.1746065642382244, "category": "attraction", "emojis": "\ud83d\udc2c|\ud83c\udf5c"},
{"name": "Mosquito", "city": "Barcelona", "lat": 41.38697054954955, "long": 2.182620027027027, "category": "restaurant", "emojis": "\ud83d\ude86"},
{"name": "Casa Vicens", "city": "Barcelona", "lat": 41.40303262937055, "long": 2.148836301683298, "category": "attraction", "emojis": "\ud83d\udd0c"},
{"name": "La Fonda", "city": "Barcelona", "lat": 41.37696574774775, "long": 2.1755703243243243, "category": "restaurant", "emojis": "\ud83d\uddf3"},
{"name": "City Hall", "city": "Barcelona", "lat": 41.389748027027025, "long": 2.1657955225225227, "category": "attraction", "emojis": "\ud83d\udd2e|\ud83d\udd27|\ud83c\udf0d"},
{"name": "Mosquito", "city": "Barcelona", "lat": 41.391475054054055, "long": 2.178565972972973, "category": "restaurant", "emojis": "\ud83d\udc75|\ud83c\udf31|\ud83d\uddff"},
{"name": "Caf\u00e9 Zurich", "city": "Barcelona", "lat": 41.38540954954955, "long": 2.167920423423423, "category": "restaurant", "emojis": "\ud83d\udc5f|\ud83c\uddee\ud83c\udde9"},
{"name": "Sagrada Fam\u00edlia", "city": "Barcelona", "lat": 41.40666842251615, "long": 2.172547029374998, "category": "attraction", "emojis": "\ud83d\ude31"},
{"name": "Parc del Centre del Poblenou", "city": "Barcelona", "lat": 41.40795345045045, "long": 2.202678801801802, "category": "attraction", "emojis": "\ud83d\ude35"},
{"name": "Jamboree", "city": "Barcelona", "lat": 41.38197525225225, "long": 2.178228927927928, "category": "attraction", "emojis": "\ud83c\udf70"},
{"name": "CDLC", "city": "Barcelona", "lat": 41.3885646036036, "long": 2.1976083513513514, "category": "restaurant", "emojis": "\ud83d\ude80"},
{"name": "Barcelona Zoo", "city": "Barcelona", "lat": 41.38727345045045, "long": 2.188544198198198, "category": "attraction", "emojis": "\ud83c\udfc8|\ud83d\udc14"},
{"name": "Casa Mil\u00e0", "city": "Barcelona", "lat": 41.3980117027027, "long": 2.1654386036036035, "category": "attraction", "emojis": "\ud83c\uddf9\ud83c\udded"},
{"name": "Elche", "city": "Barcelona", "lat": 41.37442845045045, "long": 2.167641423423423, "category": "restaurant", "emojis": "\ud83d\ude21|\ud83d\udc4e"},
{"name": "Aire de Barcelona", "city": "Barcelona", "lat": 41.38866257657657, "long": 2.186471927927928, "category": "attraction", "emojis": "\ud83d\udc49|\ud83d\ude89"},
{"name": "Sky Bar", "city": "Barcelona", "lat": 41.38856837837838, "long": 2.175880972972973, "category": "accommodation", "emojis": "\ud83d\ude02|\ud83d\ude1c|\ud83d\udebf"},
{"name": "Miramar Restaurant Garden & Club", "city": "Barcelona", "lat": 41.369562802942426, "long": 2.169817055570197, "category": "restaurant", "emojis": "\ud83d\udd2a"},
{"name": "Ciudad Condal", "city": "Barcelona", "lat": 41.387683873873875, "long": 2.1652284234234234, "category": "restaurant", "emojis": "\ud83c\udf52"},
{"name": "Hard Rock Cafe Barcelona", "city": "Barcelona", "lat": 41.38711412612612, "long": 2.1680080720720722, "category": "restaurant", "emojis": "\ud83d\udcd6|\ud83c\udf7a|\ud83c\udf5c"},
{"name": "Can Paixano", "city": "Barcelona", "lat": 41.38463592792793, "long": 2.182520099099099, "category": "restaurant", "emojis": "\ud83d\udd58|\ud83d\udec0|\ud83d\udc7c"},
{"name": "Picasso Museum", "city": "Barcelona", "lat": 41.38672957657658, "long": 2.1794114234234234, "category": "attraction", "emojis": "\ud83d\udc80|\ud83c\udf4e"},
{"name": "Picasso Museum", "city": "Barcelona", "lat": 41.385828675675675, "long": 2.182564576576577, "category": "attraction", "emojis": "\ud83c\udfd6"},
{"name": "La Paradeta Sagarada Familia", "city": "Barcelona", "lat": 41.40200552252252, "long": 2.1749975765765766, "category": "restaurant", "emojis": "\ud83d\udcbb|\ud83d\ude1e|\ud83c\uddea\ud83c\uddf8"},
{"name": "Quimet & Quimet", "city": "Barcelona", "lat": 41.3766597027027, "long": 2.1662196756756757, "category": "restaurant", "emojis": "\ud83d\ude95|\ud83d\udecb|\ud83c\udfff"},
{"name": "Barraval Restaurant", "city": "Barcelona", "lat": 41.380430675675676, "long": 2.1654305225225228, "category": "restaurant", "emojis": "\ud83d\ude89"},
{"name": "Barnabier", "city": "Barcelona", "lat": 41.38481052252252, "long": 2.1998502522522525, "category": "restaurant", "emojis": "\ud83d\udda8"},
{"name": "Barcelona Pavilion", "city": "Barcelona", "lat": 41.3691642260822, "long": 2.1495930979590496, "category": "poi", "emojis": "\ud83c\uddfa\ud83c\uddf8|\ud83c\uddf2\ud83c\uddfd|\ud83d\udd64"},
{"name": "Can Paixano", "city": "Barcelona", "lat": 41.37945574774775, "long": 2.182069648648649, "category": "restaurant", "emojis": "\ud83d\ude21"},
{"name": "Jai-Ca", "city": "Barcelona", "lat": 41.38387225225225, "long": 2.185514297297297, "category": "restaurant", "emojis": "\ud83c\udf3f|\ud83d\udc3b|\ud83d\udc25"},
{"name": "Restaurant Barceloneta", "city": "Barcelona", "lat": 41.37474932432433, "long": 2.187486873873874, "category": "restaurant", "emojis": "\ud83c\udf4d|\ud83c\udfe2"},
{"name": "Bar El Vel\u00f3dromo", "city": "Barcelona", "lat": 41.3925630990991, "long": 2.149277099099099, "category": "restaurant", "emojis": "\ud83c\uddea\ud83c\uddfa|\ud83c\udfca"},
{"name": "Sagrada Fam\u00edlia", "city": "Barcelona", "lat": 41.402389143236874, "long": 2.1750245068524756, "category": "attraction", "emojis": "\ud83d\udda8|\ud83c\udfa8|\ud83c\udf4e"},
{"name": "Pla\u00e7a de Catalunya", "city": "Barcelona", "lat": 41.385447512244426, "long": 2.171537313804977, "category": "attraction", "emojis": "\ud83c\udfab"},
{"name": "Cuines Santa Caterina", "city": "Barcelona", "lat": 41.38828302702703, "long": 2.180917927927928, "category": "restaurant", "emojis": "\ud83d\ude15|\ud83d\udc6a|\ud83d\udd2b"},
{"name": "Botafumeiro", "city": "Barcelona", "lat": 41.40245802702702, "long": 2.1562255765765768, "category": "restaurant", "emojis": "\ud83d\udecf|\ud83d\udcf1"},
{"name": "Restaurante Bacoa", "city": "Barcelona", "lat": 41.38754102702703, "long": 2.177325423423423, "category": "restaurant", "emojis": "\ud83c\udfd9|\ud83d\udebe"},
{"name": "Bar Calders", "city": "Barcelona", "lat": 41.37914270270271, "long": 2.1637313513513514, "category": "restaurant", "emojis": "\ud83c\udfc8|\ud83c\udfb2"},
{"name": "Paco Meralgo", "city": "Barcelona", "lat": 41.38891429729729, "long": 2.1510174234234234, "category": "restaurant", "emojis": "\ud83d\udcb6|\ud83c\udf3f"},
{"name": "Starbucks", "city": "Barcelona", "lat": 41.38237512612612, "long": 2.172567297297297, "category": "restaurant", "emojis": "\ud83c\udf55|\ud83c\uddf2\ud83c\uddfb"},
{"name": "Cup and Cake", "city": "Barcelona", "lat": 41.3933680990991, "long": 2.156340702702703, "category": "restaurant", "emojis": "\ud83c\udf1e"},
{"name": "Montju\u00efc Castle", "city": "Barcelona", "lat": 41.3685145045045, "long": 2.162354846846847, "category": "attraction", "emojis": "\ud83d\udc1f"},
{"name": "Parc G\u00fcell", "city": "Barcelona", "lat": 41.4176761821896, "long": 2.154403201953827, "category": "attraction", "emojis": "\ud83d\ude80|\ud83c\udfd3|\ud83d\udc23"},
{"name": "Pla\u00e7a de Catalunya", "city": "Barcelona", "lat": 41.384321386118295, "long": 2.1710868633545264, "category": "attraction", "emojis": "\ud83c\udf4d|\ud83c\udf0d"},
{"name": "Maybe Barcelona", "city": "Barcelona", "lat": 41.38083781178655, "long": 2.1168962931759774, "category": "attraction", "emojis": "\ud83c\uddf5\ud83c\uddf8"},
{"name": "Mandarin Oriental", "city": "Barcelona", "lat": 41.392533438421125, "long": 2.1654676500119736, "category": "accommodation", "emojis": "\ud83d\udc19|\ud83c\udf1f\ud83c\udf1f\ud83c\udf1f\ud83c\udf1f\ud83c\udf1f"},
{"name": "La Fonda del Port Ol\u00edmpic", "city": "Barcelona", "lat": 41.387648099099096, "long": 2.198637972972973, "category": "restaurant", "emojis": "\ud83d\udc52|\ud83c\udf77"},
{"name": "Pla\u00e7a de la Virreina", "city": "Barcelona", "lat": 41.40610712612612, "long": 2.1608436036036034, "category": "attraction", "emojis": "\ud83c\udde6\ud83c\uddfa|\ud83d\ude86|\ud83d\udcc5"},
{"name": "Casa Danone Restaurant", "city": "Barcelona", "lat": 41.39120842342343, "long": 2.147711027027027, "category": "restaurant", "emojis": "\ud83c\udf08|\ud83d\udcf9|\ud83d\udcb6"},
{"name": "Milk Bar & Bistro Restaurant", "city": "Barcelona", "lat": 41.38086654954955, "long": 2.1823872522522523, "category": "restaurant", "emojis": "\ud83c\udf67"},
{"name": "Mobile World Centre", "city": "Barcelona", "lat": 41.38423284237929, "long": 2.1691676870122225, "category": "poi", "emojis": "\ud83c\udfb5|\ud83d\udc19"},
{"name": "Hard Rock Cafe Barcelona", "city": "Barcelona", "lat": 41.38914115315315, "long": 2.1713864504504508, "category": "restaurant", "emojis": "\ud83c\udfaa|\ud83d\udecd|\ud83c\udf59"},
{"name": "Plaza de Toros Monumental de Barcelona", "city": "Barcelona", "lat": 41.403269441682376, "long": 2.182374822307177, "category": "attraction", "emojis": "\ud83d\udd27|\ud83c\udfad"},
{"name": "Cervecer\u00eda Catalana", "city": "Barcelona", "lat": 41.3905701981982, "long": 2.162393576576577, "category": "restaurant", "emojis": "\ud83d\ude47|\ud83c\udf47"},
{"name": "Marhes Club", "city": "Barcelona", "lat": 41.38228227557267, "long": 2.1143851254437758, "category": "attraction", "emojis": "\ud83c\udfe0|\ud83c\udf39|\ud83c\udf39"},
{"name": "Cosmo", "city": "Barcelona", "lat": 41.3856591981982, "long": 2.1590713963963966, "category": "restaurant", "emojis": "\ud83c\udfac"},
{"name": "La Barca del Salamanca", "city": "Barcelona", "lat": 41.389119351351354, "long": 2.2030193513513514, "category": "restaurant", "emojis": "\ud83d\udeac|\ud83d\udc8d"},
{"name": "RENFE Train 03112", "city": "Barcelona", "lat": 41.379873900900904, "long": 2.140277126126126, "category": "poi", "emojis": "\ud83d\udeac"},
{"name": "Casa Mil\u00e0", "city": "Barcelona", "lat": 41.39485854954955, "long": 2.160708873873874, "category": "attraction", "emojis": "\ud83d\udd25|\ud83d\udc25"},
{"name": "Borneo", "city": "Barcelona", "lat": 41.386656351351355, "long": 2.1837539009009013, "category": "restaurant", "emojis": "\ud83c\udf5d"},
{"name": "Can Paixano", "city": "Barcelona", "lat": 41.383059351351356, "long": 2.184321900900901, "category": "restaurant", "emojis": "\ud83d\udcc5|\ud83d\ude4c"},
{"name": "Restaurante Bacoa", "city": "Barcelona", "lat": 41.38416264864865, "long": 2.177100198198198, "category": "restaurant", "emojis": "\ud83c\udfaa|\ud83d\udc34|\ud83d\udebe"},
{"name": "Ciudad Condal", "city": "Barcelona", "lat": 41.391512702702705, "long": 2.167705900900901, "category": "restaurant", "emojis": "\ud83c\udf15|\ud83c\udf6b|\ud83d\udd0a"},
{"name": "Le Cucine Mandarosso", "city": "Barcelona", "lat": 41.38941247747748, "long": 2.1756785495495494, "category": "restaurant", "emojis": "\ud83c\udde7\ud83c\uddf7"},
{"name": "federal caf\u00e9", "city": "Barcelona", "lat": 41.375011198198195, "long": 2.1621863243243244, "category": "restaurant", "emojis": "\ud83c\udf4c\ud83c\udf69|\ud83c\udf4c\ud83c\udf69"},
{"name": "Bilbao Berria", "city": "Barcelona", "lat": 41.381687522522526, "long": 2.176784801801802, "category": "restaurant", "emojis": "\ud83d\udd13|\ud83d\uddbc|\ud83c\udf39"},
{"name": "Restaurante Tayba", "city": "Barcelona", "lat": 41.37229874774774, "long": 2.1246576216216213, "category": "restaurant", "emojis": "\ud83d\udc7f|\ud83c\uddf5\ud83c\udde6|\ud83c\udfa8"},
{"name": "Can Margarit", "city": "Barcelona", "lat": 41.372083873873876, "long": 2.163191153153153, "category": "restaurant", "emojis": "\ud83c\uddfb\ud83c\uddea|\ud83c\udf74|\ud83d\udcc9"},
{"name": "Parc de Joan Mir\u00f3", "city": "Barcelona", "lat": 41.3789569009009, "long": 2.149547126126126, "category": "attraction", "emojis": "\ud83c\udf15|\ud83d\udca6"},
{"name": "Negro-rojo", "city": "Barcelona", "lat": 41.39311825225226, "long": 2.136962801801802, "category": "restaurant", "emojis": "\ud83d\ude4c|\ud83c\uddfb\ud83c\uddf3"},
{"name": "Terra D'Escudella", "city": "Barcelona", "lat": 41.373284072072074, "long": 2.1427326036036036, "category": "restaurant", "emojis": "\ud83d\uded2"},
{"name": "Hard Rock Cafe Barcelona", "city": "Barcelona", "lat": 41.388915927927926, "long": 2.1745396036036038, "category": "restaurant", "emojis": "\ud83d\ude95|\ud83c\udf93"},
{"name": "Restaurant Agua", "city": "Barcelona", "lat": 41.38811671397638, "long": 2.196998386234976, "category": "restaurant", "emojis": "\ud83c\uddf5\ud83c\udde6"},
{"name": "Razzmatazz", "city": "Barcelona", "lat": 41.39890284780035, "long": 2.1891922778434734, "category": "attraction", "emojis": "\ud83d\udc5c|\ud83d\uddbc"},
{"name": "Joan Mir\u00f3 Foundation", "city": "Barcelona", "lat": 41.36692342342342, "long": 2.1581569729729733, "category": "attraction", "emojis": "\ud83c\udf4b"},
{"name": "Choquito", "city": "Barcelona", "lat": 41.380224972972975, "long": 2.1734539009009013, "category": "restaurant", "emojis": "\ud83c\udf3f|\ud83c\udfe7|\ud83d\ude8a"},
{"name": "Casa Amatller", "city": "Barcelona", "lat": 41.3924869009009, "long": 2.1646735495495495, "category": "attraction", "emojis": "\ud83d\udcda|\ud83d\udcaa|\ud83d\uddbc"},
{"name": "Cal Pep Restaurant", "city": "Barcelona", "lat": 41.3875306036036, "long": 2.1820596486486488, "category": "restaurant", "emojis": "\ud83c\udf5e|\ud83c\uddf9\ud83c\udded"},
{"name": "Carrer d'Enric Granados", "city": "Barcelona", "lat": 41.3887845058092, "long": 2.1569955748749234, "category": "poi", "emojis": "\ud83d\ude8a|\ud83d\ude0a|\ud83c\udf51"},
{"name": "Zen Sushi", "city": "Barcelona", "lat": 41.39002374774775, "long": 2.1450995225225227, "category": "restaurant", "emojis": "\ud83d\udc65|\ud83d\ude00|\ud83d\udcaf"},
{"name": "Sal Caf\u00e9", "city": "Barcelona", "lat": 41.37790584684685, "long": 2.197771054054054, "category": "restaurant", "emojis": "\ud83d\udca7|\ud83c\udde6\ud83c\uddfa|\ud83d\udc44"},
{"name": "La Flauta", "city": "Barcelona", "lat": 41.38735045045045, "long": 2.1599968738738737, "category": "restaurant", "emojis": "\ud83c\udf7a"},
{"name": "G\u00fcell Palace", "city": "Barcelona", "lat": 41.38001112612612, "long": 2.172888648648649, "category": "attraction", "emojis": "\ud83c\udf86"},
{"name": "Sagrada Fam\u00edlia", "city": "Barcelona", "lat": 41.40193869278642, "long": 2.175474957302926, "category": "attraction", "emojis": "\ud83c\udde7\ud83c\uddea|\ud83c\udf59|\ud83d\udc80"},
{"name": "Centro de Cultura Contempor\u00e1nea de Barcelona", "city": "Barcelona", "lat": 41.38759282882883, "long": 2.1655940990990987, "category": "attraction", "emojis": "\ud83c\udfd9|\ud83d\udc41"},
{"name": "El Vaso De Oro", "city": "Barcelona", "lat": 41.38232345045045, "long": 2.1878236756756757, "category": "restaurant", "emojis": "\ud83d\udcbf|\ud83d\udc5b"},
{"name": "Bar Lobo", "city": "Barcelona", "lat": 41.3868306036036, "long": 2.171478900900901, "category": "restaurant", "emojis": "\ud83d\udc74|\ud83c\udf1b|\ud83c\udf93"},
{"name": "Restaurante Big Fish", "city": "Barcelona", "lat": 41.387746576576575, "long": 2.1829448738738737, "category": "restaurant", "emojis": "\ud83c\udfe2"},
{"name": "Marsella", "city": "Barcelona", "lat": 41.3818386036036, "long": 2.168357072072072, "category": "restaurant", "emojis": "\ud83d\udc78"},
{"name": "Jai-Ca", "city": "Barcelona", "lat": 41.38387225225225, "long": 2.186640423423423, "category": "restaurant", "emojis": "\ud83c\udf4c|\ud83c\udff0|\ud83d\udc4d"},
{"name": "Sandwich & Friends", "city": "Barcelona", "lat": 41.38687057657658, "long": 2.181102972972973, "category": "restaurant", "emojis": "\ud83c\udfff"},
{"name": "Restaurant La Poma", "city": "Barcelona", "lat": 41.38564735135135, "long": 2.171755126126126, "category": "restaurant", "emojis": "\ud83c\udf3f"},
{"name": "Mandarin Oriental", "city": "Barcelona", "lat": 41.392758663646354, "long": 2.169071253615577, "category": "accommodation", "emojis": "\ud83d\udd35|\ud83c\uddf8\ud83c\uddea"},
{"name": "Biergarten", "city": "Barcelona", "lat": 41.38798035135135, "long": 2.121177198198198, "category": "restaurant", "emojis": "\ud83d\ude35|\ud83d\udc46"},
{"name": "Cuines Santa Caterina", "city": "Barcelona", "lat": 41.38558032432433, "long": 2.1773143243243243, "category": "restaurant", "emojis": "\ud83d\udcbf|\ud83c\udf56|\ud83c\udf2e"},
{"name": "bar seco", "city": "Barcelona", "lat": 41.37526637837838, "long": 2.1648587477477474, "category": "restaurant", "emojis": "\ud83c\uddf2\ud83c\uddfd|\ud83c\udfb8"},
{"name": "Tapas 24", "city": "Barcelona", "lat": 41.3882222972973, "long": 2.1650165225225226, "category": "restaurant", "emojis": "\ud83c\udf7b"},
{"name": "Frankfurt Pedralbes", "city": "Barcelona", "lat": 41.38945453197825, "long": 2.111622606658099, "category": "restaurant", "emojis": "\ud83d\udcf0|\ud83c\udf2b"},
{"name": "Parc G\u00fcell", "city": "Barcelona", "lat": 41.411369875883295, "long": 2.151250048800674, "category": "attraction", "emojis": "\ud83d\ude1c"},
{"name": "Mirablau", "city": "Barcelona", "lat": 41.4151180990991, "long": 2.130098198198198, "category": "restaurant", "emojis": "\ud83d\ude09"},
{"name": "Rosa del Raval Restaurant", "city": "Barcelona", "lat": 41.38481992792793, "long": 2.1705498018018017, "category": "restaurant", "emojis": "\ud83d\udd35|\ud83d\udd27|\ud83d\udce7"},
{"name": "Casa Joana", "city": "Barcelona", "lat": 41.400099027027025, "long": 2.1213498738738736, "category": "restaurant", "emojis": "\ud83d\udca1"},
{"name": "G\u00fcell Palace", "city": "Barcelona", "lat": 41.38316427927928, "long": 2.1782940540540543, "category": "attraction", "emojis": "\ud83d\udc1a"},
{"name": "Parc G\u00fcell", "city": "Barcelona", "lat": 41.41452302903645, "long": 2.1487725713231964, "category": "attraction", "emojis": "\ud83d\udc52|\ud83d\ude0d\ud83d\udc98"},
{"name": "Sagrada Fam\u00edlia", "city": "Barcelona", "lat": 41.40396571981345, "long": 2.1777272095551785, "category": "attraction", "emojis": "\ud83c\uddee\ud83c\uddf9"},
{"name": "Thai Gardens", "city": "Barcelona", "lat": 41.392091126126125, "long": 2.1642096216216213, "category": "restaurant", "emojis": "\ud83c\uddee\ud83c\uddf3"},
{"name": "Museu de la Xocolata", "city": "Barcelona", "lat": 41.39015447747747, "long": 2.179412747747748, "category": "attraction", "emojis": "\ud83d\udc9e|\ud83d\udc6f|\ud83d\udc36"},
{"name": "La Taberna Gallega", "city": "Barcelona", "lat": 41.38859367567567, "long": 2.2049463783783785, "category": "restaurant", "emojis": "\ud83d\udc55"},
{"name": "Starbucks", "city": "Barcelona", "lat": 41.38234407207207, "long": 2.161481198198198, "category": "restaurant", "emojis": "\ud83d\udc63|\ud83d\udc6e"},
{"name": "Kahala", "city": "Barcelona", "lat": 41.392995252252256, "long": 2.139193126126126, "category": "restaurant", "emojis": "\ud83c\udf73"},
{"name": "Pim Pam Burger", "city": "Barcelona", "lat": 41.387966252252255, "long": 2.1827104504504504, "category": "restaurant", "emojis": "\ud83c\udf56|\ud83c\uddf9\ud83c\udded|\ud83c\uddf2\ud83c\uddf8"},
{"name": "Maritime Museum", "city": "Barcelona", "lat": 41.37263884684685, "long": 2.178215702702703, "category": "attraction", "emojis": "\ud83c\udfe5"},
{"name": "Camp Nou", "city": "Barcelona", "lat": 41.38134945045045, "long": 2.1219180990990987, "category": "attraction", "emojis": "\ud83d\ude9a|\ud83d\udc0d|\ud83c\udf55"},
{"name": "La Bella Napoli", "city": "Barcelona", "lat": 41.374912675675674, "long": 2.166849153153153, "category": "restaurant", "emojis": "\ud83d\uddd1"},
{"name": "NAP", "city": "Barcelona", "lat": 41.3876909009009, "long": 2.179684900900901, "category": "restaurant", "emojis": "\ud83c\uddfa\ud83c\uddf8|\ud83d\udcbb|\ud83d\udd2b"},
{"name": "Casa Mil\u00e0", "city": "Barcelona", "lat": 41.394408099099095, "long": 2.1602584234234232, "category": "attraction", "emojis": "\ud83d\udc29|\ud83d\udd0d"},
{"name": "Rekons Urgell", "city": "Barcelona", "lat": 41.378950423423426, "long": 2.1645306036036036, "category": "restaurant", "emojis": "\ud83d\udd25|\ud83d\udd2e|\ud83d\udc5b"},
{"name": "Mama's Cafe", "city": "Barcelona", "lat": 41.40456535135135, "long": 2.1568157477477476, "category": "restaurant", "emojis": "\ud83d\udc3b|\ud83c\udf4a"},
{"name": "Meatpacking Bistro", "city": "Barcelona", "lat": 41.39348474774774, "long": 2.1497234504504505, "category": "restaurant", "emojis": "\ud83c\uddfb\ud83c\uddf3|\ud83c\uddee\ud83c\udde9|\ud83d\udc46"},
{"name": "Centre Comercial Arenas de Barcelona", "city": "Barcelona", "lat": 41.37494196815665, "long": 2.152439423294753, "category": "attraction", "emojis": "\ud83d\ude0e|\ud83d\udcda"},
{"name": "Restaurante El Rac\u00f3", "city": "Barcelona", "lat": 41.391434477477475, "long": 2.169267153153153, "category": "restaurant", "emojis": "\ud83c\udf1b|\ud83d\udcd6"},
{"name": "Miramar Restaurant Garden & Club", "city": "Barcelona", "lat": 41.3666348750145, "long": 2.1718440825972243, "category": "restaurant", "emojis": "\ud83c\uddf1\ud83c\udde7|\ud83c\udf4c\ud83c\udf69"},
{"name": "Restaurant La Poma", "city": "Barcelona", "lat": 41.386323027027025, "long": 2.171529900900901, "category": "restaurant", "emojis": "\ud83d\udcf9|\ud83c\uddf5\ud83c\udded"},
{"name": "El Asador de Aranda", "city": "Barcelona", "lat": 41.41279754954955, "long": 2.132290972972973, "category": "restaurant", "emojis": "\ud83c\udf5b|\ud83d\ude90"},
{"name": "Mosquito", "city": "Barcelona", "lat": 41.38606964864865, "long": 2.1783407477477477, "category": "restaurant", "emojis": "\ud83c\udfb9"},
{"name": "Rosa del Raval Restaurant", "city": "Barcelona", "lat": 41.37896407207207, "long": 2.171901153153153, "category": "restaurant", "emojis": "\ud83d\ude89|\ud83d\udd60"},
{"name": "Parada de Bus TMB 46", "city": "Barcelona", "lat": 41.37380194386765, "long": 2.154396833661227, "category": "poi", "emojis": "\ud83d\ude28"},
{"name": "Centre Comercial Arenas de Barcelona", "city": "Barcelona", "lat": 41.37674376995845, "long": 2.1483853692406987, "category": "attraction", "emojis": "\ud83d\udc0c|\ud83d\udecd"},
{"name": "CCBI barcelona", "city": "Barcelona", "lat": 41.40492234040017, "long": 2.2219490917828266, "category": "poi", "emojis": "\ud83c\udf4c\ud83c\udf69|\ud83c\uddeb\ud83c\uddee"},
{"name": "Maitea", "city": "Barcelona", "lat": 41.39063554954955, "long": 2.1499538738738737, "category": "restaurant", "emojis": "\ud83d\udd67|\ud83d\udc45"},
{"name": "Los Caracoles", "city": "Barcelona", "lat": 41.3815048018018, "long": 2.177324900900901, "category": "restaurant", "emojis": "\ud83d\udd2e"},
{"name": "Flamant", "city": "Barcelona", "lat": 41.3848773963964, "long": 2.164260927927928, "category": "restaurant", "emojis": "\ud83d\udeb2|\ud83c\udf4e|\ud83c\udfd6"},
{"name": "Buenas Migas", "city": "Barcelona", "lat": 41.39905057657658, "long": 2.157652873873874, "category": "restaurant", "emojis": "\ud83c\uddef\ud83c\uddf4"},
{"name": "Passeig de Sant Joan", "city": "Barcelona", "lat": 41.401140804635325, "long": 2.1660572441329244, "category": "poi", "emojis": "\ud83c\udff7"},
{"name": "Casa Mil\u00e0", "city": "Barcelona", "lat": 41.39283152252252, "long": 2.164537702702703, "category": "attraction", "emojis": "\ud83d\ude00|\ud83d\udd67"},
{"name": "Panader\u00eda Tallers", "city": "Barcelona", "lat": 41.38704825225226, "long": 2.1668840990990987, "category": "restaurant", "emojis": "\ud83d\udc49"},
{"name": "Barcelona Museum of Contemporary Art", "city": "Barcelona", "lat": 41.382290099099095, "long": 2.1646147477477475, "category": "attraction", "emojis": "\ud83c\udf4c\ud83c\udf69|\ud83d\udc23"},
{"name": "Buenas Migas", "city": "Barcelona", "lat": 41.39612264864865, "long": 2.1594546756756756, "category": "restaurant", "emojis": "\ud83d\udcc8"},
{"name": "Dostrece Restaurant", "city": "Barcelona", "lat": 41.37883084684685, "long": 2.1718972522522524, "category": "restaurant", "emojis": "\ud83c\uddfb\ud83c\uddf3|\ud83d\udc90"},
{"name": "Restaurante Nagisa", "city": "Barcelona", "lat": 41.399982351351355, "long": 2.1513278018018016, "category": "restaurant", "emojis": "\ud83d\udd27|\ud83d\udc6e"},
{"name": "Starbucks", "city": "Barcelona", "lat": 41.38012287387387, "long": 2.1759456756756754, "category": "restaurant", "emojis": "\ud83d\ude8c|\ud83d\udc9e|\ud83c\udde7\ud83c\uddf7"},
{"name": "Milk Bar & Bistro Restaurant", "city": "Barcelona", "lat": 41.38469537837838, "long": 2.1776575225225225, "category": "restaurant", "emojis": "\ud83d\udecf"},
{"name": "Museu Nacional d'Art de Catalunya", "city": "Barcelona", "lat": 41.366187747747745, "long": 2.152218648648649, "category": "attraction", "emojis": "\ud83d\udebe"},
{"name": "Aerobus", "city": "Barcelona", "lat": 41.386214059069644, "long": 2.1691485098890486, "category": "poi", "emojis": "\ud83d\udd5c|\ud83d\ude98"},
{"name": "Parc G\u00fcell", "city": "Barcelona", "lat": 41.415874380387805, "long": 2.1501239226745477, "category": "attraction", "emojis": "\ud83d\udc7f|\ud83d\ude86|\ud83c\udf32"},
{"name": "Bestial", "city": "Barcelona", "lat": 41.3852920990991, "long": 2.196788099099099, "category": "restaurant", "emojis": "\ud83d\udc10|\ud83c\udfb8|\ud83c\uddf8\ud83c\uddea"},
{"name": "El Petit Bangkok", "city": "Barcelona", "lat": 41.403950675675674, "long": 2.1476874504504506, "category": "restaurant", "emojis": "\ud83c\uddf5\ud83c\uddf7"},
{"name": "Restaurant Agua", "city": "Barcelona", "lat": 41.386314912174576, "long": 2.196998386234976, "category": "restaurant", "emojis": "\ud83c\udf46|\ud83d\ude98"},
{"name": "Sagrada Fam\u00edlia", "city": "Barcelona", "lat": 41.405992746840475, "long": 2.1738983807263494, "category": "attraction", "emojis": "\ud83d\udcaf"},
{"name": "Pla\u00e7a de Catalunya", "city": "Barcelona", "lat": 41.38274480954172, "long": 2.171537313804977, "category": "attraction", "emojis": "\ud83d\udcb3|\ud83c\udf34"},
{"name": "federal caf\u00e9", "city": "Barcelona", "lat": 41.37298417117117, "long": 2.1624115495495495, "category": "restaurant", "emojis": "\ud83d\udd34|\ud83c\udf05"},
{"name": "Alaire Terrace Bar", "city": "Barcelona", "lat": 41.390877297297294, "long": 2.160590898198198, "category": "accommodation", "emojis": "\ud83c\udf7c"},
{"name": "Out of China", "city": "Barcelona", "lat": 41.39241282882883, "long": 2.155492423423423, "category": "restaurant", "emojis": "\ud83d\ude9a|\ud83d\udea3"},
{"name": "Hard Rock Cafe Barcelona", "city": "Barcelona", "lat": 41.38711412612612, "long": 2.1720621261261264, "category": "restaurant", "emojis": "\ud83c\udf76|\ud83d\udc49"},
{"name": "La Fonda", "city": "Barcelona", "lat": 41.37786664864865, "long": 2.1769216756756755, "category": "restaurant", "emojis": "\ud83c\uddf5\ud83c\udde6|\ud83d\ude98|\ud83c\udffb"},
{"name": "Hard Rock Cafe Barcelona", "city": "Barcelona", "lat": 41.38215917117117, "long": 2.173638702702703, "category": "restaurant", "emojis": "\ud83d\udcad|\ud83c\uddf9\ud83c\udded"},
{"name": "Cal Pep Restaurant", "city": "Barcelona", "lat": 41.385503576576575, "long": 2.1840866756756756, "category": "restaurant", "emojis": "\ud83c\udf2a|\ud83c\udfa3|\ud83d\udc9e"},
{"name": "Centro de Cultura Contempor\u00e1nea de Barcelona", "city": "Barcelona", "lat": 41.3828630990991, "long": 2.1691977027027027, "category": "attraction", "emojis": "\ud83c\udf46|\ud83d\udd35"},
{"name": "Paso de Zebra festival", "city": "Barcelona", "lat": 41.40789042675135, "long": 2.1070300398161264, "category": "attraction", "emojis": "\ud83d\udecb|\ud83c\udf77"},
{"name": "Parc de la Ciutadella", "city": "Barcelona", "lat": 41.38700072461388, "long": 2.1852496499413987, "category": "attraction", "emojis": "\ud83d\ude15|\ud83c\udfaa"},
{"name": "Casa Amatller", "city": "Barcelona", "lat": 41.39445024259171, "long": 2.1656672072573504, "category": "poi", "emojis": "\ud83c\udf39"},
{"name": "Parc del laberint - Jard\u00ed museu", "city": "Barcelona", "lat": 41.43848364864865, "long": 2.143347072072072, "category": "attraction", "emojis": "\ud83d\udc4b"},
{"name": "La Flauta", "city": "Barcelona", "lat": 41.38847657657657, "long": 2.162023900900901, "category": "restaurant", "emojis": "\ud83d\udce7"},
{"name": "Picasso Museum", "city": "Barcelona", "lat": 41.38380164864865, "long": 2.180087099099099, "category": "attraction", "emojis": "\ud83d\ude4f|\ud83d\ude86"},
{"name": "Mirablau", "city": "Barcelona", "lat": 41.418496477477476, "long": 2.1323504504504505, "category": "restaurant", "emojis": "\ud83d\udebe|\ud83c\udf74"},
{"name": "Parc G\u00fcell", "city": "Barcelona", "lat": 41.4149734794869, "long": 2.1539527515033767, "category": "attraction", "emojis": "\ud83d\udc4b|\ud83d\ude2e|\ud83c\udf6b"},
{"name": "Hard Rock Cafe Barcelona", "city": "Barcelona", "lat": 41.385087099099096, "long": 2.172963027027027, "category": "restaurant", "emojis": "\ud83d\udd0d|\ud83c\udfd9"},
{"name": "El Otro Bar", "city": "Barcelona", "lat": 41.40342702702703, "long": 2.160569702702703, "category": "restaurant", "emojis": "\ud83d\udd25|\ud83d\udeab"},
{"name": "Sagrada Fam\u00edlia", "city": "Barcelona", "lat": 41.40734409819183, "long": 2.172321804149773, "category": "attraction", "emojis": "\ud83d\udeaa|\ud83c\udf2d"},
{"name": "Sagrada Fam\u00edlia", "city": "Barcelona", "lat": 41.40666842251615, "long": 2.175474957302926, "category": "attraction", "emojis": "\ud83c\udf2d|\ud83d\udd1c"},
{"name": "Mini Estadi", "city": "Barcelona", "lat": 41.37725752252252, "long": 2.1145723963963965, "category": "attraction", "emojis": "\ud83d\udd29|\ud83c\udde6\ud83c\uddf6"},
{"name": "Restaurante Tenorio", "city": "Barcelona", "lat": 41.392214675675675, "long": 2.164510324324324, "category": "restaurant", "emojis": "\ud83d\udc8d|\ud83c\udf6f|\ud83d\udc66"},
{"name": "La Flauta", "city": "Barcelona", "lat": 41.38735045045045, "long": 2.1604473243243243, "category": "restaurant", "emojis": "\ud83c\udf93|\ud83d\udc49|\ud83d\udc80"},
{"name": "La Flauta", "city": "Barcelona", "lat": 41.38757567567567, "long": 2.1633752522522522, "category": "restaurant", "emojis": "\ud83c\udfb8|\ud83c\udf4c\ud83c\udf69"},
{"name": "Wystc Luncheon", "city": "Barcelona", "lat": 41.380196072072074, "long": 2.108798099099099, "category": "poi", "emojis": "\ud83c\udfc6|\ud83c\uddf2\ud83c\udde6"},
{"name": "Los Caracoles", "city": "Barcelona", "lat": 41.377901198198195, "long": 2.179577153153153, "category": "restaurant", "emojis": "\ud83d\udccc|\ud83c\udfad"},
{"name": "Marina Moncho's", "city": "Barcelona", "lat": 41.38907170270271, "long": 2.199344801801802, "category": "restaurant", "emojis": "\ud83c\udf5c|\ud83d\ude06"},
{"name": "Picasso Museum", "city": "Barcelona", "lat": 41.38109894594595, "long": 2.1848168288288288, "category": "attraction", "emojis": "\ud83d\udc86|\ud83d\udc37|\ud83d\udcb0"},
{"name": "Els 4Gats", "city": "Barcelona", "lat": 41.388673927927925, "long": 2.170545846846847, "category": "restaurant", "emojis": "\ud83d\udea3"},
{"name": "Barcelona Museum of Contemporary Art", "city": "Barcelona", "lat": 41.3849928018018, "long": 2.169119252252252, "category": "attraction", "emojis": "\ud83c\uddee\ud83c\uddf1|\ud83d\udce7"},
{"name": "Parc G\u00fcell", "city": "Barcelona", "lat": 41.412045551558975, "long": 2.1501239226745477, "category": "attraction", "emojis": "\ud83d\udd60"},
{"name": "The Sutton Club", "city": "Barcelona", "lat": 41.397579576576575, "long": 2.149885198198198, "category": "attraction", "emojis": "\ud83c\udf56|\ud83d\udeab"},
{"name": "federal caf\u00e9", "city": "Barcelona", "lat": 41.3759120990991, "long": 2.1608349729729732, "category": "restaurant", "emojis": "\ud83c\uddec\ud83c\udde7|\ud83c\udf81|\ud83d\udd11"},
{"name": "El Filete Ruso", "city": "Barcelona", "lat": 41.394605027027026, "long": 2.157248351351351, "category": "restaurant", "emojis": "\ud83d\udca3"},
{"name": "Euskal Etxea (Restaurant)", "city": "Barcelona", "lat": 41.38496945045045, "long": 2.183951027027027, "category": "restaurant", "emojis": "\ud83d\udda8|\ud83c\udded\ud83c\uddf0"},
{"name": "Restaurant Agua", "city": "Barcelona", "lat": 41.3829365337962, "long": 2.194971359207949, "category": "restaurant", "emojis": "\ud83d\udc34"},
{"name": "Central Garden Hostel One", "city": "Barcelona", "lat": 41.3917380990991, "long": 2.1696614504504503, "category": "accommodation", "emojis": "\ud83c\udf73|\ud83c\udf5f"},
{"name": "Parc G\u00fcell", "city": "Barcelona", "lat": 41.41362212813555, "long": 2.151475274025899, "category": "attraction", "emojis": "\ud83d\ude22|\ud83d\udc75"},
{"name": "Sagrada Fam\u00edlia", "city": "Barcelona", "lat": 41.4053170711648, "long": 2.175249732077701, "category": "attraction", "emojis": "\ud83d\ude0d\ud83d\udc98"},
{"name": "Picasso Museum", "city": "Barcelona", "lat": 41.38470254954955, "long": 2.1821141261261263, "category": "attraction", "emojis": "\ud83c\udf52"},
{"name": "The Sutton Club", "city": "Barcelona", "lat": 41.397129126126124, "long": 2.1510113243243243, "category": "attraction", "emojis": "\ud83d\udc69|\ud83c\udf86|\ud83c\udfe7"},
{"name": "Parc G\u00fcell", "city": "Barcelona", "lat": 41.4131716776851, "long": 2.153502301052926, "category": "attraction", "emojis": "\ud83c\uddea\ud83c\uddfa|\ud83c\udf6f"},
{"name": "Caixaforum", "city": "Barcelona", "lat": 41.370215873873875, "long": 2.147549972972973, "category": "attraction", "emojis": "\ud83d\udc67|\ud83c\uddee\ud83c\uddf9|\ud83c\uddf8\ud83c\uddfe"},
{"name": "Paso de Zebra festival", "city": "Barcelona", "lat": 41.40721475107567, "long": 2.1038768866629733, "category": "attraction", "emojis": "\ud83c\udfd6"},
{"name": "Marina Moncho's", "city": "Barcelona", "lat": 41.38591854954955, "long": 2.196642099099099, "category": "restaurant", "emojis": "\ud83c\udf35"},
{"name": "Bangkok Cafe", "city": "Barcelona", "lat": 41.38192919819819, "long": 2.1347746486486487, "category": "restaurant", "emojis": "\ud83c\udf5d|\ud83c\udfaa|\ud83d\udd60"},
{"name": "Rac\u00f3 de la Vila", "city": "Barcelona", "lat": 41.39594752009643, "long": 2.1974161360068982, "category": "restaurant", "emojis": "\ud83d\udc5b"},
{"name": "Happy Bar & Grill Restaurant", "city": "Barcelona", "lat": 41.388676675675676, "long": 2.168711351351351, "category": "restaurant", "emojis": "\ud83c\udf2a|\ud83c\udf6d|\ud83c\udf32"},
{"name": "Casa Amatller", "city": "Barcelona", "lat": 41.39473915315315, "long": 2.1633221981981983, "category": "attraction", "emojis": "\ud83d\udc1b|\ud83d\udc7c|\ud83d\udc80"},
{"name": "Xemei", "city": "Barcelona", "lat": 41.3723519009009, "long": 2.161425675675676, "category": "restaurant", "emojis": "\ud83d\udc42"},
{"name": "Sagrada Fam\u00edlia", "city": "Barcelona", "lat": 41.405992746840475, "long": 2.1766010834290523, "category": "attraction", "emojis": "\ud83d\udc4a|\ud83d\udc4d|\ud83d\udcf9"},
{"name": "Funicular Parc de Montjuic", "city": "Barcelona", "lat": 41.36946548147345, "long": 2.1611102507995477, "category": "poi", "emojis": "\ud83d\udc65|\ud83d\ude35|\ud83d\ude8f"},
{"name": "Picasso Museum", "city": "Barcelona", "lat": 41.38357642342343, "long": 2.1803123243243245, "category": "attraction", "emojis": "\ud83c\udfb5|\ud83c\udf0a|\ud83d\udc43"},
{"name": "Blue Moon Barcelona", "city": "Barcelona", "lat": 41.38308747787657, "long": 2.1125505242874776, "category": "attraction", "emojis": "\ud83d\ude98"},
{"name": "Parc de la Ciutadella", "city": "Barcelona", "lat": 41.38497369758685, "long": 2.187501902193651, "category": "attraction", "emojis": "\ud83d\ude32|\ud83c\udf0a"},
{"name": "Mirablau", "city": "Barcelona", "lat": 41.4151180990991, "long": 2.1314495495495493, "category": "restaurant", "emojis": "\ud83d\udce2"},
{"name": "Starbucks", "city": "Barcelona", "lat": 41.3843710990991, "long": 2.165535252252252, "category": "restaurant", "emojis": "\ud83c\udf82|\ud83d\udeac"},
{"name": "Starbucks", "city": "Barcelona", "lat": 41.38572574774774, "long": 2.1686056756756757, "category": "restaurant", "emojis": "\ud83c\udf6e|\ud83d\udc41"},
{"name": "Aire de Barcelona", "city": "Barcelona", "lat": 41.390239153153146, "long": 2.182643099099099, "category": "attraction", "emojis": "\ud83d\udc74|\ud83d\udc43|\ud83d\udcbb"},
{"name": "Restaurante Trit\u00f3n", "city": "Barcelona", "lat": 41.38430097297297, "long": 2.1090556216216214, "category": "restaurant", "emojis": "\ud83d\udee1|\ud83c\udf4e"},
{"name": "Cockteleria Copa Caf\u00e9", "city": "Barcelona", "lat": 41.403702423423425, "long": 2.1588302522522524, "category": "restaurant", "emojis": "\ud83d\uddff|\ud83c\udf5a|\ud83d\ude89"},
{"name": "Botafumeiro", "city": "Barcelona", "lat": 41.403358927927925, "long": 2.1553246756756756, "category": "restaurant", "emojis": "\ud83c\udf6f"},
{"name": "Txalaparta Restaurant", "city": "Barcelona", "lat": 41.37507254954955, "long": 2.1318631981981984, "category": "restaurant", "emojis": "\ud83d\udc37"},
{"name": "Sagrada Fam\u00edlia", "city": "Barcelona", "lat": 41.40081256666029, "long": 2.1738983807263494, "category": "attraction", "emojis": "\ud83d\uddfd|\ud83d\udeb6"},
{"name": "SMS Del\u00edcies", "city": "Barcelona", "lat": 41.40221087387388, "long": 2.1506233963963965, "category": "restaurant", "emojis": "\ud83d\ude98|\ud83c\udf47"},
{"name": "Cervecer\u00eda Catalana", "city": "Barcelona", "lat": 41.39102064864865, "long": 2.1617179009009013, "category": "restaurant", "emojis": "\ud83c\udf7b|\ud83c\udfc4|\ud83c\uddf2\ud83c\uddfd"},
{"name": "Buenas Migas", "city": "Barcelona", "lat": 41.4010776036036, "long": 2.156076297297297, "category": "restaurant", "emojis": "\ud83d\udc1f"},
{"name": "Montju\u00efc Castle", "city": "Barcelona", "lat": 41.3631090990991, "long": 2.166408900900901, "category": "attraction", "emojis": "\ud83d\udc45|\ud83d\udea7"},
{"name": "federal caf\u00e9", "city": "Barcelona", "lat": 41.37793912612612, "long": 2.1610601981981983, "category": "restaurant", "emojis": "\ud83c\udf47|\ud83c\udf5e"},
{"name": "La Taverna del Born", "city": "Barcelona", "lat": 41.38493754954955, "long": 2.181983873873874, "category": "restaurant", "emojis": "\ud83c\udf80|\ud83c\udf59|\ud83d\ude4c"},
{"name": "Sagrada Fam\u00edlia", "city": "Barcelona", "lat": 41.40464139548912, "long": 2.172547029374998, "category": "attraction", "emojis": "\ud83c\udde7\ud83c\uddf9|\ud83c\udde7\ud83c\uddf7"},
{"name": "Casa Amatller", "city": "Barcelona", "lat": 41.39564005405405, "long": 2.1635474234234233, "category": "attraction", "emojis": "\ud83c\udf93|\ud83d\udc59|\ud83d\ude9a"},
{"name": "Sagardi BCN Gotic", "city": "Barcelona", "lat": 41.381902423423426, "long": 2.1790711981981983, "category": "restaurant", "emojis": "\ud83c\udf76|\ud83d\udda8|\ud83c\udfb5"},
{"name": "Casa Amatller", "city": "Barcelona", "lat": 41.39271212612612, "long": 2.166250126126126, "category": "attraction", "emojis": "\ud83c\udfe0"},
{"name": "Meatpacking Bistro", "city": "Barcelona", "lat": 41.39416042342342, "long": 2.1485973243243244, "category": "restaurant", "emojis": "\ud83d\udcf7|\ud83c\udf73|\ud83c\udf42"},
{"name": "Centro de Cultura Contempor\u00e1nea de Barcelona", "city": "Barcelona", "lat": 41.382412648648646, "long": 2.163341846846847, "category": "attraction", "emojis": "\ud83c\uddeb\ud83c\uddee|\ud83d\ude80"},
{"name": "The George Payne Irish Bar", "city": "Barcelona", "lat": 41.388140648648644, "long": 2.1707317477477477, "category": "restaurant", "emojis": "\ud83d\udce2"},
{"name": "Centre d'atenci\u00f3 Prim\u00e0ria G\u00f2tic", "city": "Barcelona", "lat": 41.37649560093797, "long": 2.174623921249823, "category": "poi", "emojis": "\ud83c\udfc6|\ud83c\udde6\ud83c\uddfa|\ud83d\udc1a"},
{"name": "Parc G\u00fcell", "city": "Barcelona", "lat": 41.41069420020762, "long": 2.149448246998872, "category": "attraction", "emojis": "\ud83d\udd09|\ud83c\uddf2\ud83c\uddfd"},
{"name": "La Barca del Salamanca", "city": "Barcelona", "lat": 41.389569801801805, "long": 2.204595927927928, "category": "restaurant", "emojis": "\ud83d\udc2c"},
{"name": "La Isabela (Hotel 1898)", "city": "Barcelona", "lat": 41.38477394390635, "long": 2.1733897059854774, "category": "accommodation", "emojis": "\ud83d\ude0e"},
{"name": "CosmoCaixa", "city": "Barcelona", "lat": 41.41384667567567, "long": 2.1313364504504504, "category": "attraction", "emojis": "\ud83c\udde7\ud83c\uddea|\ud83c\uddfa\ud83c\uddf8|\ud83d\udc5c"},
{"name": "Los Caracoles", "city": "Barcelona", "lat": 41.381730027027025, "long": 2.1750726486486487, "category": "restaurant", "emojis": "\ud83c\udf0b|\ud83d\udd27"},
{"name": "Parc G\u00fcell", "city": "Barcelona", "lat": 41.41609960561303, "long": 2.1539527515033767, "category": "attraction", "emojis": "\ud83d\ude8a|\ud83d\udcba"},
{"name": "Frankfurt Pedralbes", "city": "Barcelona", "lat": 41.38945453197825, "long": 2.115676660712153, "category": "restaurant", "emojis": "\ud83d\udc44"},
{"name": "Botafumeiro", "city": "Barcelona", "lat": 41.40268325225225, "long": 2.150594945945946, "category": "restaurant", "emojis": "\ud83c\udfec|\ud83c\uddfa\ud83c\uddf8"},
{"name": "La Gavina", "city": "Barcelona", "lat": 41.37949787387387, "long": 2.181998846846847, "category": "restaurant", "emojis": "\ud83d\udc1a"},
{"name": "Hard Rock Cafe Barcelona", "city": "Barcelona", "lat": 41.384861873873874, "long": 2.1704855495495496, "category": "restaurant", "emojis": "\ud83d\udcbb"},
{"name": "Portal de l'\u00c0ngel", "city": "Barcelona", "lat": 41.38346108824374, "long": 2.1773470424172037, "category": "poi", "emojis": "\ud83c\uddf5\ud83c\uddf9"},
{"name": "Casa Mil\u00e0", "city": "Barcelona", "lat": 41.394408099099095, "long": 2.162961126126126, "category": "attraction", "emojis": "\ud83d\udd58|\ud83d\udcb9"},
{"name": "Bar Lobo", "city": "Barcelona", "lat": 41.38435312612612, "long": 2.168550972972973, "category": "restaurant", "emojis": "\ud83d\udc29|\ud83d\ude14|\ud83c\udf07"},
{"name": "Kibuka", "city": "Barcelona", "lat": 41.40556167567567, "long": 2.1553885495495493, "category": "restaurant", "emojis": "\ud83c\udf74|\ud83d\ude1c|\ud83c\udf6e"},
{"name": "Creperie Bretonne Annaick", "city": "Barcelona", "lat": 41.38478387387388, "long": 2.1980663513513514, "category": "restaurant", "emojis": "\ud83d\ude2e|\ud83d\udc6b"},
{"name": "Cosmo", "city": "Barcelona", "lat": 41.38971325225226, "long": 2.1633506756756757, "category": "restaurant", "emojis": "\ud83d\udeab"},
{"name": "Parc G\u00fcell", "city": "Barcelona", "lat": 41.414748254261674, "long": 2.1537275262781512, "category": "attraction", "emojis": "\ud83d\udce7"},
{"name": "Club de Caf\u00e9 Novell", "city": "Barcelona", "lat": 41.40744345045045, "long": 2.1659903243243246, "category": "restaurant", "emojis": "\ud83d\udea7|\ud83c\uddee\ud83c\uddf9|\ud83c\uddf2\ud83c\uddfb"},
{"name": "Can Paixano", "city": "Barcelona", "lat": 41.379230522522526, "long": 2.185222801801802, "category": "restaurant", "emojis": "\ud83d\udcde"},
{"name": "Centro de Cultura Contempor\u00e1nea de Barcelona", "city": "Barcelona", "lat": 41.38061084684685, "long": 2.167846351351351, "category": "attraction", "emojis": "\ud83d\udc4c"},
{"name": "Frankfurt Pedralbes", "city": "Barcelona", "lat": 41.38540047792419, "long": 2.1109469309824234, "category": "restaurant", "emojis": "\ud83d\udeac"},
{"name": "Caf\u00e9 San Telmo", "city": "Barcelona", "lat": 41.3926090990991, "long": 2.1442453963963963, "category": "restaurant", "emojis": "\ud83d\udc86|\ud83d\udcde"},
{"name": "El Cangrejo Loco", "city": "Barcelona", "lat": 41.388375675675675, "long": 2.203821027027027, "category": "restaurant", "emojis": "\ud83c\udf30|\ud83d\udc40"},
{"name": "La Fonda", "city": "Barcelona", "lat": 41.37966845045045, "long": 2.173318072072072, "category": "restaurant", "emojis": "\ud83d\udd2c|\ud83d\udcf0|\ud83c\udfca"},
{"name": "Marhes Club", "city": "Barcelona", "lat": 41.37867867196907, "long": 2.1132589993176496, "category": "attraction", "emojis": "\ud83d\ude22|\ud83c\udde9\ud83c\uddea"},
{"name": "Buenas Migas", "city": "Barcelona", "lat": 41.39950102702703, "long": 2.160806027027027, "category": "restaurant", "emojis": "\ud83c\udf47|\ud83c\udf07"},
{"name": "Barcel\u00f3 Raval", "city": "Barcelona", "lat": 41.37696508064398, "long": 2.1660274408018965, "category": "restaurant", "emojis": "\ud83d\udcc4"},
{"name": "Galeria Manbrot", "city": "Barcelona", "lat": 41.38637525225226, "long": 2.177872072072072, "category": "attraction", "emojis": "\ud83c\uddf2\ud83c\uddfd"},
{"name": "Mies van der Rohe Pavilion", "city": "Barcelona", "lat": 41.36788229729729, "long": 2.1503804504504505, "category": "attraction", "emojis": "\ud83c\uddf5\ud83c\uddf9"},
{"name": "Starbucks Coffee", "city": "Barcelona", "lat": 41.41126412612613, "long": 2.217607576576577, "category": "restaurant", "emojis": "\ud83c\uddf2\ud83c\uddf8|\ud83d\ude89|\ud83d\udccc"},
{"name": "Otto Zutz", "city": "Barcelona", "lat": 41.39994954954955, "long": 2.1506956756756757, "category": "attraction", "emojis": "\ud83d\udda8|\ud83d\ude1f"},
{"name": "De Tapa Madre Restaurant", "city": "Barcelona", "lat": 41.40077882882883, "long": 2.168555027027027, "category": "restaurant", "emojis": "\ud83d\ude09|\ud83d\udcbf|\ud83d\udc68"},
{"name": "Dostrece Restaurant", "city": "Barcelona", "lat": 41.37995697297298, "long": 2.1671675225225226, "category": "restaurant", "emojis": "\ud83d\udea2|\ud83d\udccf|\ud83c\udf6d"},
{"name": "Paso de Zebra festival", "city": "Barcelona", "lat": 41.41059312945405, "long": 2.1041021118881984, "category": "attraction", "emojis": "\ud83d\udcfb|\ud83c\udfc6|\ud83c\udf39"},
{"name": "Palau de la M\u00fasica Catalana", "city": "Barcelona", "lat": 41.38486307207207, "long": 2.176333126126126, "category": "attraction", "emojis": "\ud83d\udd2e|\ud83c\udfc3|\ud83d\udc74"},
{"name": "Hard Rock Cafe Barcelona", "city": "Barcelona", "lat": 41.38418619819819, "long": 2.1731882522522525, "category": "restaurant", "emojis": "\ud83d\udc09|\ud83c\udfeb|\ud83c\udf72"},
{"name": "La Flauta", "city": "Barcelona", "lat": 41.385548648648644, "long": 2.162023900900901, "category": "restaurant", "emojis": "\ud83c\uddf2\ud83c\uddf8|\ud83d\udc6e"},
{"name": "Joan Mir\u00f3 Foundation", "city": "Barcelona", "lat": 41.3712027027027, "long": 2.157256072072072, "category": "attraction", "emojis": "\ud83d\udc9e|\ud83d\udc9e"},
{"name": "Cup and Cake", "city": "Barcelona", "lat": 41.392016747747746, "long": 2.151610972972973, "category": "restaurant", "emojis": "\ud83d\udc1f|\ud83c\udfd6"},
{"name": "Blue Moon Barcelona", "city": "Barcelona", "lat": 41.3824118022009, "long": 2.112775749512703, "category": "attraction", "emojis": "\ud83d\udc57|\ud83d\udc53|\ud83c\udfe7"},
{"name": "Picasso Museum", "city": "Barcelona", "lat": 41.38560345045045, "long": 2.180087099099099, "category": "attraction", "emojis": "\ud83c\uddef\ud83c\uddf4|\ud83c\udf5f|\ud83d\udc41"},
{"name": "Paso de Zebra festival", "city": "Barcelona", "lat": 41.405412949273874, "long": 2.1038768866629733, "category": "attraction", "emojis": "\ud83d\ude80|\ud83d\udd27"},
{"name": "La Piazzenza", "city": "Barcelona", "lat": 41.40873925225225, "long": 2.175838576576577, "category": "restaurant", "emojis": "\ud83d\udc76|\ud83d\ude4f"},
{"name": "Picasso Museum", "city": "Barcelona", "lat": 41.38290074774775, "long": 2.179861873873874, "category": "attraction", "emojis": "\ud83c\uddfb\ud83c\uddf3|\ud83d\udc1c"},
{"name": "Marhes Club", "city": "Barcelona", "lat": 41.37822822151862, "long": 2.1121328731915234, "category": "attraction", "emojis": "\ud83c\udf1f\ud83c\udf1f\ud83c\udf1f\ud83c\udf1f\ud83c\udf1f|\ud83d\udc4f"},
{"name": "Bilbao Berria", "city": "Barcelona", "lat": 41.38529112612613, "long": 2.1713793963963965, "category": "restaurant", "emojis": "\ud83c\uddef\ud83c\uddf5|\ud83c\udf30"},
{"name": "The Sutton Club", "city": "Barcelona", "lat": 41.39465164864865, "long": 2.1521374504504505, "category": "attraction", "emojis": "\ud83d\udc65|\ud83d\udc34"},
{"name": "Alsur Caf\u00e9 (Palau)", "city": "Barcelona", "lat": 41.3835323963964, "long": 2.178054702702703, "category": "restaurant", "emojis": "\ud83d\udd60|\ud83d\udc4f|\ud83d\udc74"},
{"name": "Parc G\u00fcell", "city": "Barcelona", "lat": 41.41722573173915, "long": 2.155529328079953, "category": "attraction", "emojis": "\ud83d\udc34|\ud83c\uddf9\ud83c\udded|\ud83c\udf35"},
{"name": "Bar El Vel\u00f3dromo", "city": "Barcelona", "lat": 41.3916621981982, "long": 2.1479257477477476, "category": "restaurant", "emojis": "\ud83c\udf08|\ud83d\ude35|\ud83d\udc0e"},
{"name": "La Flauta", "city": "Barcelona", "lat": 41.38825135135135, "long": 2.164276153153153, "category": "restaurant", "emojis": "\ud83d\udc43|\ud83c\udfc6"},
{"name": "Casa Mil\u00e0", "city": "Barcelona", "lat": 41.39328197297297, "long": 2.1622854504504505, "category": "attraction", "emojis": "\ud83c\uddf5\ud83c\udded|\ud83c\uddee\ud83c\udde9"},
{"name": "Parc de la Ciutadella", "city": "Barcelona", "lat": 41.38474847236162, "long": 2.189303703995453, "category": "attraction", "emojis": "\ud83c\udf7f|\ud83c\udfac"},
{"name": "Palau de la Virreina", "city": "Barcelona", "lat": 41.3816478693691, "long": 2.1754611486317037, "category": "poi", "emojis": "\ud83c\udf2a|\ud83c\udf46"},
{"name": "Parc G\u00fcell", "city": "Barcelona", "lat": 41.41069420020762, "long": 2.151250048800674, "category": "attraction", "emojis": "\ud83c\udfe6"},
{"name": "Cervecer\u00eda Catalana", "city": "Barcelona", "lat": 41.39011974774775, "long": 2.159465648648649, "category": "restaurant", "emojis": "\ud83c\udfb2"},
{"name": "Alsur Caf\u00e9 (El Born)", "city": "Barcelona", "lat": 41.38505942342343, "long": 2.178847873873874, "category": "restaurant", "emojis": "\ud83c\udf0a"},
{"name": "Pla\u00e7a de Sants", "city": "Barcelona", "lat": 41.374875243285324, "long": 2.137152192628651, "category": "attraction", "emojis": "\ud83d\udc68|\ud83d\udebe"},
{"name": "El Asador de Aranda", "city": "Barcelona", "lat": 41.41595070270271, "long": 2.1381468288288286, "category": "restaurant", "emojis": "\ud83d\udd50"},
{"name": "Piscolabis", "city": "Barcelona", "lat": 41.39147270270271, "long": 2.1342523783783784, "category": "restaurant", "emojis": "\ud83c\udde7\ud83c\uddec|\ud83d\udc0d|\ud83c\udfa7"},
{"name": "La Flauta", "city": "Barcelona", "lat": 41.38577387387387, "long": 2.1629248018018017, "category": "restaurant", "emojis": "\ud83c\udf2b|\ud83d\udd52|\ud83d\udcf9"},
{"name": "Temaki-ya", "city": "Barcelona", "lat": 41.384277927927926, "long": 2.181584351351351, "category": "restaurant", "emojis": "\ud83c\udf39"},
{"name": "Picasso Museum", "city": "Barcelona", "lat": 41.3833511981982, "long": 2.1832402522522525, "category": "attraction", "emojis": "\ud83c\uddee\ud83c\uddf1"},
{"name": "Cervecer\u00eda Catalana", "city": "Barcelona", "lat": 41.39282245045045, "long": 2.1587899729729734, "category": "restaurant", "emojis": "\ud83d\ude02|\ud83d\ude1c"},
{"name": "Rosa Negra", "city": "Barcelona", "lat": 41.385117648648645, "long": 2.176278675675676, "category": "restaurant", "emojis": "\ud83d\udc03"},
{"name": "Bang Bang", "city": "Barcelona", "lat": 41.399339702702704, "long": 2.1319898288288286, "category": "restaurant", "emojis": "\ud83d\udcaf"},
{"name": "Mandarin Oriental", "city": "Barcelona", "lat": 41.3923082131959, "long": 2.1683955779399016, "category": "accommodation", "emojis": "\ud83c\udf81|\ud83d\udec0|\ud83d\ude30"},
{"name": "BEST WESTERN Hotel ALFA Aeropuerto", "city": "Barcelona", "lat": 41.3290651242869, "long": 2.110191435856872, "category": "accommodation", "emojis": "\ud83d\udc02|\ud83c\udfac|\ud83d\udc4a"},
{"name": "Restaurante parrilla Alfonsina", "city": "Barcelona", "lat": 41.3979709009009, "long": 2.174794099099099, "category": "restaurant", "emojis": "\ud83c\udfac|\ud83d\udc29|\ud83d\udc75"},
{"name": "Cuines Santa Caterina", "city": "Barcelona", "lat": 41.387156900900905, "long": 2.1797918018018017, "category": "restaurant", "emojis": "\ud83c\udf4c"},
{"name": "Maritime Museum", "city": "Barcelona", "lat": 41.37353974774774, "long": 2.1730355225225226, "category": "attraction", "emojis": "\ud83d\udc03|\ud83d\ude47"},
{"name": "Jai-Ca", "city": "Barcelona", "lat": 41.380268648648645, "long": 2.1873160990990987, "category": "restaurant", "emojis": "\ud83d\udc36"},
{"name": "Cervecer\u00eda Catalana", "city": "Barcelona", "lat": 41.393047675675675, "long": 2.161492675675676, "category": "restaurant", "emojis": "\ud83c\udf64|\ud83c\udf53"},
{"name": "Restaurante El Mexicano de Arizala", "city": "Barcelona", "lat": 41.3749150990991, "long": 2.1243718738738737, "category": "restaurant", "emojis": "\ud83c\udf51"},
{"name": "Caixaforum", "city": "Barcelona", "lat": 41.369990648648646, "long": 2.1489013243243242, "category": "attraction", "emojis": "\ud83d\udcef"},
{"name": "Salamanca", "city": "Barcelona", "lat": 41.381976378378376, "long": 2.1949406036036034, "category": "restaurant", "emojis": "\ud83c\udf1e"},
{"name": "Barcel\u00f3 Raval", "city": "Barcelona", "lat": 41.38146958514848, "long": 2.171432846207302, "category": "restaurant", "emojis": "\ud83c\udf35"},
{"name": "Tramvia Blau", "city": "Barcelona", "lat": 41.407933697297295, "long": 2.133046846846847, "category": "poi", "emojis": "\ud83d\udc02"},
{"name": "Cervecer\u00eda Catalana", "city": "Barcelona", "lat": 41.39484947747748, "long": 2.162844027027027, "category": "restaurant", "emojis": "\ud83d\udcd6"},
{"name": "Kibuka", "city": "Barcelona", "lat": 41.40240852252252, "long": 2.156739900900901, "category": "restaurant", "emojis": "\ud83d\udd52|\ud83d\udcbb|\ud83c\uddea\ud83c\uddf8"},
{"name": "Moncho's Barcelona", "city": "Barcelona", "lat": 41.39774125225225, "long": 2.1483285495495497, "category": "restaurant", "emojis": "\ud83d\udca9"},
{"name": "Cervecer\u00eda Catalana", "city": "Barcelona", "lat": 41.3914710990991, "long": 2.1612674504504508, "category": "restaurant", "emojis": "\ud83c\udf89"},
{"name": "Sagrada Fam\u00edlia", "city": "Barcelona", "lat": 41.40081256666029, "long": 2.1759254077533767, "category": "attraction", "emojis": "\ud83d\udc2c|\ud83c\udf69|\ud83d\udcba"},
{"name": "Rosa Negra", "city": "Barcelona", "lat": 41.38601854954955, "long": 2.173350747747748, "category": "restaurant", "emojis": "\ud83c\udf0b|\ud83d\udcf9"},
{"name": "7 Portes", "city": "Barcelona", "lat": 41.38156132432433, "long": 2.181337972972973, "category": "restaurant", "emojis": "\ud83c\udfb8"},
{"name": "Casa Danone Restaurant", "city": "Barcelona", "lat": 41.393235450450454, "long": 2.147260576576577, "category": "restaurant", "emojis": "\ud83d\udecd"},
{"name": "CosmoCaixa", "city": "Barcelona", "lat": 41.411369198198194, "long": 2.1326878018018016, "category": "attraction", "emojis": "\ud83d\udc3b"},
{"name": "Aire de Barcelona", "city": "Barcelona", "lat": 41.38415807207207, "long": 2.184670126126126, "category": "attraction", "emojis": "\ud83c\uddf2\ud83c\uddfb|\ud83d\ude1f|\ud83c\udff0"},
{"name": "Restaurante Big Fish", "city": "Barcelona", "lat": 41.385043873873876, "long": 2.1831700990990988, "category": "restaurant", "emojis": "\ud83d\udc02|\ud83d\udeb6|\ud83d\udc40"},
{"name": "Bar Ca\u00f1ete", "city": "Barcelona", "lat": 41.38050835135135, "long": 2.1715354234234234, "category": "restaurant", "emojis": "\ud83d\udebd|\ud83c\udfa4"},
{"name": "Buenas Migas", "city": "Barcelona", "lat": 41.3965730990991, "long": 2.160580801801802, "category": "restaurant", "emojis": "\ud83d\ude4c"},
{"name": "La Muscleria", "city": "Barcelona", "lat": 41.395133648648645, "long": 2.168000576576577, "category": "restaurant", "emojis": "\ud83d\ude20|\ud83d\udc59|\ud83c\udf21"},
{"name": "El Tinglado de Moncho's Restaurant", "city": "Barcelona", "lat": 41.38924845045045, "long": 2.1977962972972973, "category": "restaurant", "emojis": "\ud83c\udfc6|\ud83d\udecf"},
{"name": "Sagrada Fam\u00edlia", "city": "Barcelona", "lat": 41.40193869278642, "long": 2.175474957302926, "category": "attraction", "emojis": "\ud83d\ude4f|\ud83c\udf15|\ud83c\udfe7"},
{"name": "La Barca del Salamanca", "city": "Barcelona", "lat": 41.39047070270271, "long": 2.2012175495495496, "category": "restaurant", "emojis": "\ud83d\udd52|\ud83d\udc76|\ud83c\udde6\ud83c\udde9"},
{"name": "Montju\u00efc Castle", "city": "Barcelona", "lat": 41.36716315315315, "long": 2.163706198198198, "category": "attraction", "emojis": "\ud83c\udf2f"},
{"name": "Cervecer\u00eda Catalana", "city": "Barcelona", "lat": 41.3887683963964, "long": 2.158564747747748, "category": "restaurant", "emojis": "\ud83c\udf4c"},
{"name": "Cal Pep Restaurant", "city": "Barcelona", "lat": 41.38144952252252, "long": 2.1829605495495494, "category": "restaurant", "emojis": "\ud83c\udf4b"},
{"name": "Sagrada Fam\u00edlia", "city": "Barcelona", "lat": 41.402163918011645, "long": 2.1729974798254488, "category": "attraction", "emojis": "\ud83c\udfff|\ud83d\udcc8|\ud83d\ude35"},
{"name": "La Esquinica", "city": "Barcelona", "lat": 41.43095445045045, "long": 2.1708255495495496, "category": "restaurant", "emojis": "\ud83c\udf80|\ud83d\udc09"},
{"name": "La Piazzenza", "city": "Barcelona", "lat": 41.40603654954955, "long": 2.1780908288288288, "category": "restaurant", "emojis": "\ud83c\udf88"},
{"name": "Sagardi BCN Gotic", "city": "Barcelona", "lat": 41.38595647747748, "long": 2.1815486756756757, "category": "restaurant", "emojis": "\ud83d\udc3b|\ud83d\udc10|\ud83d\ude9a"},
{"name": "El Xampanyet", "city": "Barcelona", "lat": 41.381578072072074, "long": 2.182763126126126, "category": "restaurant", "emojis": "\ud83d\ude28"},
{"name": "Costa Gallega", "city": "Barcelona", "lat": 41.39514012612612, "long": 2.1634901261261263, "category": "restaurant", "emojis": "\ud83d\udd12"},
{"name": "Centre Comercial Arenas de Barcelona", "city": "Barcelona", "lat": 41.3753924186071, "long": 2.148610594465924, "category": "attraction", "emojis": "\ud83c\uddfb\ud83c\uddea|\ud83d\udea7|\ud83d\ude00"},
{"name": "Picasso Museum", "city": "Barcelona", "lat": 41.382675522522526, "long": 2.182564576576577, "category": "attraction", "emojis": "\ud83c\udf53|\ud83d\ude90"},
{"name": "Milk Bar & Bistro Restaurant", "city": "Barcelona", "lat": 41.37996564864865, "long": 2.183062927927928, "category": "restaurant", "emojis": "\ud83d\udca8"},
{"name": "Restaurante Bacoa", "city": "Barcelona", "lat": 41.387315801801805, "long": 2.181829927927928, "category": "restaurant", "emojis": "\ud83d\ude28|\ud83d\udd27|\ud83d\udcd6"},
{"name": "Marsella", "city": "Barcelona", "lat": 41.37598274774774, "long": 2.1746633783783786, "category": "restaurant", "emojis": "\ud83c\udfe2|\ud83c\udfa6"},
{"name": "Casa Mil\u00e0", "city": "Barcelona", "lat": 41.39756125225225, "long": 2.1622854504504505, "category": "attraction", "emojis": "\ud83c\udf73|\ud83d\ude0e|\ud83d\udcbb"},
{"name": "Marsella", "city": "Barcelona", "lat": 41.37598274774774, "long": 2.173987702702703, "category": "restaurant", "emojis": "\ud83c\uddee\ud83c\uddf3|\ud83d\udc1f"},
{"name": "La Paradeta Sagarada Familia", "city": "Barcelona", "lat": 41.402230747747744, "long": 2.1761237027027027, "category": "restaurant", "emojis": "\ud83c\udf3f"},
{"name": "Marhes Club", "city": "Barcelona", "lat": 41.3825075007979, "long": 2.110556296614947, "category": "attraction", "emojis": "\ud83d\udebf"},
{"name": "Addis Abeba", "city": "Barcelona", "lat": 41.380567126126124, "long": 2.1404663783783784, "category": "restaurant", "emojis": "\ud83d\ude97|\ud83d\udc86|\ud83d\udd13"},
{"name": "Casa Mil\u00e0", "city": "Barcelona", "lat": 41.398236927927925, "long": 2.1622854504504505, "category": "attraction", "emojis": "\ud83c\udf5e|\ud83d\udc40|\ud83d\udea2"},
{"name": "Botafumeiro", "city": "Barcelona", "lat": 41.39998054954955, "long": 2.152621972972973, "category": "restaurant", "emojis": "\ud83d\udee1|\ud83c\udfb6|\ud83d\udca5"},
{"name": "La Royale", "city": "Barcelona", "lat": 41.40545402702703, "long": 2.137368351351351, "category": "restaurant", "emojis": "\ud83d\ude12"},
{"name": "Rosa Negra", "city": "Barcelona", "lat": 41.384667198198194, "long": 2.172449846846847, "category": "restaurant", "emojis": "\ud83c\udfa8|\ud83c\udf32|\ud83c\udf50"},
{"name": "El Otro Bar", "city": "Barcelona", "lat": 41.4050036036036, "long": 2.1594435765765767, "category": "restaurant", "emojis": "\ud83c\udfc8|\ud83d\udc3b"},
{"name": "Casa Mil\u00e0", "city": "Barcelona", "lat": 41.394633324324325, "long": 2.1602584234234232, "category": "attraction", "emojis": "\ud83c\udfe7"},
{"name": "Razzmatazz", "city": "Barcelona", "lat": 41.39642537032287, "long": 2.1885166021677973, "category": "attraction", "emojis": "\ud83c\udde7\ud83c\uddec|\ud83c\udfaf|\ud83d\udcf7"},
{"name": "Restaurant Barceloneta", "city": "Barcelona", "lat": 41.37474932432433, "long": 2.1924418288288288, "category": "restaurant", "emojis": "\ud83d\udcdb"},
{"name": "The Tatami Room", "city": "Barcelona", "lat": 41.373559324324326, "long": 2.166869126126126, "category": "restaurant", "emojis": "\ud83d\uddfd"},
{"name": "Taverna El Glop", "city": "Barcelona", "lat": 41.40828237837838, "long": 2.1602176756756757, "category": "restaurant", "emojis": "\ud83c\uddf5\ud83c\uddf8|\ud83d\udd64"},
{"name": "Jai-Ca", "city": "Barcelona", "lat": 41.38297135135135, "long": 2.186415198198198, "category": "restaurant", "emojis": "\ud83c\udde6\ud83c\udde9|\ud83d\udc8e"},
{"name": "Taller De Tapas", "city": "Barcelona", "lat": 41.380068396396396, "long": 2.1790114234234235, "category": "restaurant", "emojis": "\ud83d\udcfa|\ud83c\udf73|\ud83c\uddef\ud83c\uddf4"},
{"name": "Caf\u00e9 Zurich", "city": "Barcelona", "lat": 41.3867609009009, "long": 2.1701726756756754, "category": "restaurant", "emojis": "\ud83d\udd17|\ud83c\udfa7"},
{"name": "Restaurante Bacoa", "city": "Barcelona", "lat": 41.38754102702703, "long": 2.181829927927928, "category": "restaurant", "emojis": "\ud83d\udca1|\ud83d\udd14|\ud83d\udc1b"},
{"name": "Masia Restaurant Tibidabo", "city": "Barcelona", "lat": 41.42063054954955, "long": 2.115946072072072, "category": "restaurant", "emojis": "\ud83d\udc7e|\ud83d\udc83"},
{"name": "Infussion Bar", "city": "Barcelona", "lat": 41.387052900900905, "long": 2.1332325765765767, "category": "restaurant", "emojis": "\ud83c\udf3f|\ud83d\udc68|\ud83c\udf47"},
{"name": "Cal Pinxo", "city": "Barcelona", "lat": 41.382581801801805, "long": 2.185358324324324, "category": "restaurant", "emojis": "\ud83d\udd17|\ud83c\uddee\ud83c\udde9|\ud83c\udf64"},
{"name": "La Taverna del Born", "city": "Barcelona", "lat": 41.384712324324326, "long": 2.180407297297297, "category": "restaurant", "emojis": "\ud83d\ude14"},
{"name": "Picasso Museum", "city": "Barcelona", "lat": 41.38132417117117, "long": 2.1850420540540543, "category": "attraction", "emojis": "\ud83c\udf34|\ud83d\udc7c"},
{"name": "BierCab", "city": "Barcelona", "lat": 41.383685317128524, "long": 2.162900118784828, "category": "attraction", "emojis": "\ud83c\udf2e|\ud83c\udf86|\ud83c\uddee\ud83c\uddea"},
{"name": "Bilbao Berria", "city": "Barcelona", "lat": 41.38709292792793, "long": 2.1734064234234234, "category": "restaurant", "emojis": "\ud83d\udcc9|\ud83d\uddff"},
{"name": "Gran Bodega Salt\u00f3", "city": "Barcelona", "lat": 41.371614873873874, "long": 2.1648947477477476, "category": "restaurant", "emojis": "\ud83d\udd0c|\ud83c\udf69"},
{"name": "Bormuth", "city": "Barcelona", "lat": 41.388062252252254, "long": 2.183611126126126, "category": "restaurant", "emojis": "\ud83c\uddf9\ud83c\udded|\ud83d\ude35"},
{"name": "La Gavina", "city": "Barcelona", "lat": 41.37837174774774, "long": 2.1876294774774774, "category": "restaurant", "emojis": "\ud83c\uddfb\ud83c\uddf3|\ud83d\ude21|\ud83d\udcaf"},
{"name": "Thai Gardens", "city": "Barcelona", "lat": 41.38961364864865, "long": 2.164660072072072, "category": "restaurant", "emojis": "\ud83d\udc75"},
{"name": "7 Portes", "city": "Barcelona", "lat": 41.38539015315315, "long": 2.181563198198198, "category": "restaurant", "emojis": "\ud83d\udd2e|\ud83d\udc46|\ud83c\udf39"},
{"name": "Margarita Blue", "city": "Barcelona", "lat": 41.380204252252256, "long": 2.181120702702703, "category": "restaurant", "emojis": "\ud83d\udc0d"},
{"name": "Barcelona Museum of Contemporary Art", "city": "Barcelona", "lat": 41.38544325225225, "long": 2.1646147477477475, "category": "attraction", "emojis": "\ud83d\udd11"},
{"name": "ABaC Restaurant & Hotel", "city": "Barcelona", "lat": 41.413184590419704, "long": 2.1372962968370013, "category": "restaurant", "emojis": "\ud83c\udf7f|\ud83d\uddd1"},
{"name": "Razzmatazz", "city": "Barcelona", "lat": 41.39615542342342, "long": 2.1917526756756756, "category": "attraction", "emojis": "\ud83c\udf42|\ud83c\udfab"},
{"name": "Parc de la Ciutadella", "city": "Barcelona", "lat": 41.39128000389315, "long": 2.182997397689147, "category": "attraction", "emojis": "\ud83d\udecb|\ud83d\uddff"},
{"name": "Centre Comercial Arenas de Barcelona", "city": "Barcelona", "lat": 41.37516719338188, "long": 2.148610594465924, "category": "attraction", "emojis": "\ud83d\udcf7|\ud83c\udde7\ud83c\uddf9"},
{"name": "La Taguara Areperia", "city": "Barcelona", "lat": 41.383861747747744, "long": 2.185064927927928, "category": "restaurant", "emojis": "\ud83c\udf44|\ud83c\udf31"},
{"name": "Elche", "city": "Barcelona", "lat": 41.37014917117117, "long": 2.1730468288288285, "category": "restaurant", "emojis": "\ud83c\udf93"},
{"name": "Hard Rock Cafe Barcelona", "city": "Barcelona", "lat": 41.384861873873874, "long": 2.1680080720720722, "category": "restaurant", "emojis": "\ud83d\udc6f"},
{"name": "Choquito", "city": "Barcelona", "lat": 41.380224972972975, "long": 2.170075522522523, "category": "restaurant", "emojis": "\ud83d\udc4c"},
{"name": "Foster's Hollywood", "city": "Barcelona", "lat": 41.407200747747744, "long": 2.2142898738738737, "category": "restaurant", "emojis": "\ud83c\udfb8|\ud83d\udd5c|\ud83d\udcde"},
{"name": "#VMworld 2013 Europe (Fira Gran Via)", "city": "Barcelona", "lat": 41.35151359182572, "long": 2.1351463068712984, "category": "poi", "emojis": "\ud83c\udf62|\ud83c\udf6f"},
{"name": "Lolita Taperia", "city": "Barcelona", "lat": 41.37503587387388, "long": 2.154662846846847, "category": "restaurant", "emojis": "\ud83c\udf59|\ud83c\uddf7\ud83c\uddfa"},
{"name": "Cup and Cake", "city": "Barcelona", "lat": 41.395620351351354, "long": 2.1511605225225225, "category": "restaurant", "emojis": "\ud83d\udea7"},
{"name": "La Flauta", "city": "Barcelona", "lat": 41.39786715315315, "long": 2.1565519009009013, "category": "restaurant", "emojis": "\ud83c\udfb2|\ud83d\ude97|\ud83c\udf5f"},
{"name": "Bestial", "city": "Barcelona", "lat": 41.3897966036036, "long": 2.1972385495495494, "category": "restaurant", "emojis": "\ud83d\udc67|\ud83c\uddee\ud83c\uddf3|\ud83d\udd73"},
{"name": "Pla\u00e7a de Catalunya", "city": "Barcelona", "lat": 41.38634841314533, "long": 2.1681589354265984, "category": "attraction", "emojis": "\ud83c\udded\ud83c\uddf0|\ud83d\udd4a"},
{"name": "Sagrada Fam\u00edlia", "city": "Barcelona", "lat": 41.40306481891255, "long": 2.1777272095551785, "category": "attraction", "emojis": "\ud83d\udca1"},
{"name": "Picnic Restaurant", "city": "Barcelona", "lat": 41.387442648648644, "long": 2.182404900900901, "category": "restaurant", "emojis": "\ud83d\ude2b|\ud83d\udcb0|\ud83c\udf76"},
{"name": "Sagrada Fam\u00edlia", "city": "Barcelona", "lat": 41.40464139548912, "long": 2.1750245068524756, "category": "attraction", "emojis": "\ud83c\udf54"},
{"name": "federal caf\u00e9", "city": "Barcelona", "lat": 41.37456074774774, "long": 2.1592583963963965, "category": "restaurant", "emojis": "\ud83d\udebe|\ud83c\udf07|\ud83d\udc4b"},
{"name": "El Tio Che", "city": "Barcelona", "lat": 41.397577522522525, "long": 2.2004225225225227, "category": "restaurant", "emojis": "\ud83c\udde7\ud83c\uddea|\ud83c\udf08"},
{"name": "Cervecer\u00eda Catalana", "city": "Barcelona", "lat": 41.394173801801806, "long": 2.1619431261261264, "category": "restaurant", "emojis": "\ud83d\udca1|\ud83d\ude00"},
{"name": "Verdi", "city": "Barcelona", "lat": 41.40839305405405, "long": 2.1573355495495496, "category": "attraction", "emojis": "\ud83d\udc04"},
{"name": "Casa Amatller", "city": "Barcelona", "lat": 41.39045987387387, "long": 2.162196072072072, "category": "attraction", "emojis": "\ud83d\udc1c|\ud83c\udfec"},
{"name": "Barcelona Bus Turistic", "city": "Barcelona", "lat": 41.38954066047903, "long": 2.1731017962686776, "category": "poi", "emojis": "\ud83d\udc83|\ud83d\udc37|\ud83c\udf74"},
{"name": "Paso de Zebra festival", "city": "Barcelona", "lat": 41.405412949273874, "long": 2.1032012109872973, "category": "attraction", "emojis": "\ud83c\udf6c"},
{"name": "Picasso Museum", "city": "Barcelona", "lat": 41.389657504504505, "long": 2.1848168288288288, "category": "attraction", "emojis": "\ud83c\udf83"},
{"name": "Cal Pep Restaurant", "city": "Barcelona", "lat": 41.38685492792793, "long": 2.182510099099099, "category": "restaurant", "emojis": "\ud83c\udf1e|\ud83c\udf7f"},
{"name": "Terra D'Escudella", "city": "Barcelona", "lat": 41.377563351351355, "long": 2.1395794504504506, "category": "restaurant", "emojis": "\ud83c\udf1b|\ud83c\udf7b"},
{"name": "Bestial", "city": "Barcelona", "lat": 41.38686867567567, "long": 2.1972385495495494, "category": "restaurant", "emojis": "\ud83c\udf7f"},
{"name": "Bilbao Berria", "city": "Barcelona", "lat": 41.38191274774775, "long": 2.1754334504504507, "category": "restaurant", "emojis": "\ud83c\udf30|\ud83d\udc34"},
{"name": "La Fonda del Port Ol\u00edmpic", "city": "Barcelona", "lat": 41.38652197297297, "long": 2.2024668018018017, "category": "restaurant", "emojis": "\ud83d\udc14"},
{"name": "Picasso Museum", "city": "Barcelona", "lat": 41.38199984684685, "long": 2.1771591711711715, "category": "attraction", "emojis": "\ud83c\udfb9|\ud83d\ude0e|\ud83d\udcbb"},
{"name": "Pla\u00e7a de Catalunya", "city": "Barcelona", "lat": 41.38769976449667, "long": 2.1681589354265984, "category": "attraction", "emojis": "\ud83d\udc86"},
{"name": "El Cangrejo Loco", "city": "Barcelona", "lat": 41.38634864864865, "long": 2.200893099099099, "category": "restaurant", "emojis": "\ud83d\udd52|\ud83d\udc59|\ud83d\udc65"},
{"name": "Bar Tom\u00e1s", "city": "Barcelona", "lat": 41.39685532432433, "long": 2.120195072072072, "category": "restaurant", "emojis": "\ud83d\udc66|\ud83d\udcba"},
{"name": "El Xampanyet", "city": "Barcelona", "lat": 41.3827041981982, "long": 2.183889252252252, "category": "restaurant", "emojis": "\ud83c\udfed"},
{"name": "La Gavina", "city": "Barcelona", "lat": 41.37949787387387, "long": 2.186278126126126, "category": "restaurant", "emojis": "\ud83c\uddf2\ud83c\uddfd|\ud83d\ude30"},
{"name": "Paso de Zebra festival", "city": "Barcelona", "lat": 41.40766520152612, "long": 2.106579589365676, "category": "attraction", "emojis": "\ud83c\udf6f"},
{"name": "Sol de NIT", "city": "Barcelona", "lat": 41.39866984684685, "long": 2.1582443513513514, "category": "restaurant", "emojis": "\ud83d\ude89"},
{"name": "Picasso Museum", "city": "Barcelona", "lat": 41.38447732432433, "long": 2.1821141261261263, "category": "attraction", "emojis": "\ud83c\udfdc"},
{"name": "Panader\u00eda Tallers", "city": "Barcelona", "lat": 41.385471675675674, "long": 2.1655327477477475, "category": "restaurant", "emojis": "\ud83d\udecb"},
{"name": "Panader\u00eda Tallers", "city": "Barcelona", "lat": 41.3838950990991, "long": 2.169136351351351, "category": "restaurant", "emojis": "\ud83d\ude8c|\ud83c\uddfb\ud83c\uddf3"},
{"name": "Ciudad Condal", "city": "Barcelona", "lat": 41.38835954954955, "long": 2.169507702702703, "category": "restaurant", "emojis": "\ud83c\udde6\ud83c\uddf7"},
{"name": "Sandwich & Friends", "city": "Barcelona", "lat": 41.389348054054054, "long": 2.179976846846847, "category": "restaurant", "emojis": "\ud83d\udc25"},
{"name": "Casa Amatller", "city": "Barcelona", "lat": 41.39203645045045, "long": 2.163096972972973, "category": "attraction", "emojis": "\ud83c\udf6a|\ud83d\ude87"},
{"name": "Cosmo", "city": "Barcelona", "lat": 41.38791145045045, "long": 2.164476801801802, "category": "restaurant", "emojis": "\ud83c\udf2d|\ud83c\udf4c|\ud83d\udc26"},
{"name": "Centre Comercial Arenas de Barcelona", "city": "Barcelona", "lat": 41.37922124743593, "long": 2.1479349187902486, "category": "attraction", "emojis": "\ud83c\udf6e|\ud83c\udf2a"},
{"name": "Glaciar", "city": "Barcelona", "lat": 41.3784401981982, "long": 2.171609846846847, "category": "restaurant", "emojis": "\ud83d\uded2"},
{"name": "Pim Pam Burger", "city": "Barcelona", "lat": 41.388416702702706, "long": 2.1858636036036034, "category": "restaurant", "emojis": "\ud83c\uddea\ud83c\uddfa|\ud83c\uddf2\ud83c\uddfb"},
{"name": "El Tragaluz", "city": "Barcelona", "lat": 41.3938640990991, "long": 2.158622198198198, "category": "restaurant", "emojis": "\ud83c\uddee\ud83c\uddf3|\ud83c\uddfb\ud83c\uddf3"},
{"name": "La Flauta", "city": "Barcelona", "lat": 41.39005315315315, "long": 2.1615734504504505, "category": "restaurant", "emojis": "\ud83d\udd2b"},
{"name": "Caf\u00e9 Zurich", "city": "Barcelona", "lat": 41.38293207207207, "long": 2.1710735765765765, "category": "restaurant", "emojis": "\ud83d\udc36|\ud83d\udc31"},
{"name": "Central Cafe", "city": "Barcelona", "lat": 41.387788198198194, "long": 2.134240423423423, "category": "restaurant", "emojis": "\ud83d\udd4a|\ud83c\udf35|\ud83d\udd25"},
{"name": "Museu D'Hist\u00f2ria De Catalunya", "city": "Barcelona", "lat": 41.3846266036036, "long": 2.1862604504504506, "category": "attraction", "emojis": "\ud83d\udd1d|\ud83d\udd50|\ud83c\udfa6"},
{"name": "Choquito", "city": "Barcelona", "lat": 41.386756504504504, "long": 2.171426873873874, "category": "restaurant", "emojis": "\ud83d\udc52"},
{"name": "Mosquito", "city": "Barcelona", "lat": 41.38426784684685, "long": 2.181493900900901, "category": "restaurant", "emojis": "\ud83d\udc1f"},
{"name": "Ciudad Condal", "city": "Barcelona", "lat": 41.391287477477476, "long": 2.1672554504504506, "category": "restaurant", "emojis": "\ud83d\udc0e|\ud83d\udd13|\ud83d\udc19"},
{"name": "Frankfurt Pedralbes", "city": "Barcelona", "lat": 41.386751829275546, "long": 2.1102712553067478, "category": "restaurant", "emojis": "\ud83d\udcad|\ud83d\udca6"},
{"name": "Pim Pam Burger", "city": "Barcelona", "lat": 41.388416702702706, "long": 2.1829356756756755, "category": "restaurant", "emojis": "\ud83c\udf0a|\ud83d\udc69"},
{"name": "Disney Magic en Barcelona", "city": "Barcelona", "lat": 41.354252904026296, "long": 2.175968020675298, "category": "poi", "emojis": "\ud83d\udc44|\ud83d\ude2f|\ud83d\udd0a"},
{"name": "Salamanca", "city": "Barcelona", "lat": 41.377922324324324, "long": 2.1929135765765766, "category": "restaurant", "emojis": "\ud83d\ude47|\ud83c\udfb2"},
{"name": "Monterey", "city": "Barcelona", "lat": 41.3953592972973, "long": 2.1235349009009012, "category": "restaurant", "emojis": "\ud83c\udde8\ud83c\uddf3|\ud83d\udd11|\ud83c\udf4c\ud83c\udf69"},
{"name": "Pla\u00e7a de Catalunya", "city": "Barcelona", "lat": 41.38364571044262, "long": 2.168834611102274, "category": "attraction", "emojis": "\ud83d\udc66|\ud83d\ude18\ud83d\ude18|\ud83c\udf7a"},
{"name": "ABaC Restaurant & Hotel", "city": "Barcelona", "lat": 41.409580986816096, "long": 2.1357197202604246, "category": "restaurant", "emojis": "\ud83c\udf1e"},
{"name": "Restaurante La Radio", "city": "Barcelona", "lat": 41.38284115315315, "long": 2.159466801801802, "category": "restaurant", "emojis": "\ud83d\udc65|\ud83d\udc19"},
{"name": "Sagrada Fam\u00edlia", "city": "Barcelona", "lat": 41.40148824233597, "long": 2.1768263086542774, "category": "attraction", "emojis": "\ud83d\udd34|\ud83c\udde7\ud83c\uddf9"},
{"name": "Restaurant Agua", "city": "Barcelona", "lat": 41.3811347319944, "long": 2.196998386234976, "category": "restaurant", "emojis": "\ud83d\udc46"},
{"name": "Restaurant La Poma", "city": "Barcelona", "lat": 41.3878996036036, "long": 2.171529900900901, "category": "restaurant", "emojis": "\ud83d\udd0a"},
{"name": "Pla\u00e7a de Catalunya", "city": "Barcelona", "lat": 41.3852222870192, "long": 2.166807584075247, "category": "attraction", "emojis": "\ud83c\uddea\ud83c\uddfa|\ud83c\udde6\ud83c\udde9"},
{"name": "Caixaforum", "city": "Barcelona", "lat": 41.373819477477475, "long": 2.146874297297297, "category": "attraction", "emojis": "\ud83c\udf1f\ud83c\udf1f\ud83c\udf1f\ud83c\udf1f\ud83c\udf1f|\ud83d\udecd|\ud83d\ude00"},
{"name": "Tapas 24", "city": "Barcelona", "lat": 41.38867274774775, "long": 2.1659174234234233, "category": "restaurant", "emojis": "\ud83c\uddf5\ud83c\uddfc|\ud83d\udc67|\ud83d\udd2e"},
{"name": "Horchateria Sirvent", "city": "Barcelona", "lat": 41.4047213963964, "long": 2.163394927927928, "category": "restaurant", "emojis": "\ud83d\ude1e|\ud83d\udebf|\ud83d\udee1"},
{"name": "Taverna El Glop", "city": "Barcelona", "lat": 41.40355264864865, "long": 2.1620194774774775, "category": "restaurant", "emojis": "\ud83d\udcba|\ud83d\udd67|\ud83d\udccf"},
{"name": "Restaurante Tapa Tapa", "city": "Barcelona", "lat": 41.37426342342342, "long": 2.151221351351351, "category": "restaurant", "emojis": "\ud83d\udc78|\ud83c\udfca|\ud83d\udd07"},
{"name": "G\u00fcell Palace", "city": "Barcelona", "lat": 41.37640752252252, "long": 2.173339099099099, "category": "attraction", "emojis": "\ud83c\udf44|\ud83c\udf59|\ud83c\udf5a"},
{"name": "Cervecer\u00eda Catalana", "city": "Barcelona", "lat": 41.393047675675675, "long": 2.1612674504504508, "category": "restaurant", "emojis": "\ud83d\udc45"},
{"name": "Centro de Cultura Contempor\u00e1nea de Barcelona", "city": "Barcelona", "lat": 41.382637873873875, "long": 2.1660445495495493, "category": "attraction", "emojis": "\ud83d\udc1c"},
{"name": "Parc de la Ciutadella", "city": "Barcelona", "lat": 41.385424148037295, "long": 2.1852496499413987, "category": "attraction", "emojis": "\ud83c\udf59"},
{"name": "Cantina Machito", "city": "Barcelona", "lat": 41.40743615315315, "long": 2.154901072072072, "category": "restaurant", "emojis": "\ud83c\udfe7"},
{"name": "El Tinglado de Moncho's Restaurant", "city": "Barcelona", "lat": 41.386095297297295, "long": 2.198021522522523, "category": "restaurant", "emojis": "\ud83d\udd58|\ud83d\ude0e|\ud83d\ude9a"},
{"name": "CosmoCaixa", "city": "Barcelona", "lat": 41.412495324324325, "long": 2.1299850990990987, "category": "attraction", "emojis": "\ud83d\udc55"},
{"name": "Caf\u00e9 San Telmo", "city": "Barcelona", "lat": 41.39486135135135, "long": 2.1485246756756755, "category": "restaurant", "emojis": "\ud83c\udf75|\ud83c\uddf2\ud83c\uddf8|\ud83c\udf9e"},
{"name": "Montju\u00efc Castle", "city": "Barcelona", "lat": 41.3631090990991, "long": 2.1641566486486488, "category": "attraction", "emojis": "\ud83d\ude35|\ud83c\udfec|\ud83c\udf84"},
{"name": "Sagrada Fam\u00edlia", "city": "Barcelona", "lat": 41.402389143236874, "long": 2.173222705050674, "category": "attraction", "emojis": "\ud83d\udc76"},
{"name": "La Fonda", "city": "Barcelona", "lat": 41.3756143963964, "long": 2.174669423423423, "category": "restaurant", "emojis": "\ud83d\udc63|\ud83d\uddf3"},
{"name": "Rosa Negra", "city": "Barcelona", "lat": 41.38399152252252, "long": 2.1735759729729733, "category": "restaurant", "emojis": "\ud83d\udd73|\ud83c\udf5e"},
{"name": "Restaurante La Radio", "city": "Barcelona", "lat": 41.38171502702703, "long": 2.1581154504504507, "category": "restaurant", "emojis": "\ud83d\uddd1|\ud83c\udf1b|\ud83c\udde6\ud83c\uddf7"},
{"name": "Marsella", "city": "Barcelona", "lat": 41.37575752252252, "long": 2.1685822972972972, "category": "restaurant", "emojis": "\ud83d\udd27|\ud83c\uddf9\ud83c\udded"},
{"name": "Casa Museu Gaud\u00ed", "city": "Barcelona", "lat": 41.41400054954955, "long": 2.1497291711711712, "category": "attraction", "emojis": "\ud83c\udf75"},
{"name": "Cervecer\u00eda Catalana", "city": "Barcelona", "lat": 41.390344972972976, "long": 2.1603665495495497, "category": "restaurant", "emojis": "\ud83d\ude1c|\ud83d\udd58|\ud83d\ude30"},
{"name": "Starbucks", "city": "Barcelona", "lat": 41.39000502702702, "long": 2.1683804504504507, "category": "restaurant", "emojis": "\ud83c\uddf8\ud83c\uddfe|\ud83d\udef4|\ud83d\udd09"},
{"name": "Sushi Shop", "city": "Barcelona", "lat": 41.3910511981982, "long": 2.144315900900901, "category": "restaurant", "emojis": "\ud83d\udc83"},
{"name": "Montju\u00efc Castle", "city": "Barcelona", "lat": 41.3631090990991, "long": 2.164607099099099, "category": "attraction", "emojis": "\ud83d\ude18\ud83d\ude18|\ud83d\udd0c"},
{"name": "Can Margarit", "city": "Barcelona", "lat": 41.37636315315315, "long": 2.1564343963963966, "category": "restaurant", "emojis": "\ud83c\udfac"},
{"name": "Cervecer\u00eda Catalana", "city": "Barcelona", "lat": 41.393723351351355, "long": 2.1603665495495497, "category": "restaurant", "emojis": "\ud83d\ude2b|\ud83c\udf55"},
{"name": "Sagrada Fam\u00edlia", "city": "Barcelona", "lat": 41.40486662071435, "long": 2.176150632978602, "category": "attraction", "emojis": "\ud83d\ude18\ud83d\ude18|\ud83c\udf6d"},
{"name": "Cinesa Diagonal Mar", "city": "Barcelona", "lat": 41.41212408934326, "long": 2.2163060680255495, "category": "attraction", "emojis": "\ud83d\ude34|\ud83d\udce7|\ud83c\udf31"},
{"name": "La Fonda", "city": "Barcelona", "lat": 41.37876754954955, "long": 2.173543297297297, "category": "restaurant", "emojis": "\ud83c\udf75|\ud83d\udcde|\ud83d\udc45"},
{"name": "Parc G\u00fcell", "city": "Barcelona", "lat": 41.41452302903645, "long": 2.1519257244763494, "category": "attraction", "emojis": "\ud83c\udf6e|\ud83d\udd13|\ud83d\udc37"},
{"name": "Can Recasens", "city": "Barcelona", "lat": 41.40031197297297, "long": 2.198630873873874, "category": "restaurant", "emojis": "\ud83d\ude0a|\ud83d\ude06"},
{"name": "Costa Gallega", "city": "Barcelona", "lat": 41.3949149009009, "long": 2.164391027027027, "category": "restaurant", "emojis": "\ud83c\udf59"},
{"name": "Can Paixano", "city": "Barcelona", "lat": 41.38058187387388, "long": 2.184321900900901, "category": "restaurant", "emojis": "\ud83c\udfdc"},
{"name": "Paso de Zebra festival", "city": "Barcelona", "lat": 41.405638174499096, "long": 2.109057066843153, "category": "attraction", "emojis": "\ud83d\udec5"},
{"name": "Alsur Caf\u00e9 (Palau)", "city": "Barcelona", "lat": 41.38871257657657, "long": 2.1746763243243246, "category": "restaurant", "emojis": "\ud83c\udf75|\ud83c\udfc3"},
{"name": "Cup and Cake", "city": "Barcelona", "lat": 41.39629602702703, "long": 2.1513857477477476, "category": "restaurant", "emojis": "\ud83c\udde7\ud83c\uddea|\ud83c\uddee\ud83c\uddf3"},
{"name": "Bestial", "city": "Barcelona", "lat": 41.384391198198195, "long": 2.1961124234234233, "category": "restaurant", "emojis": "\ud83d\ude32"},
{"name": "federal caf\u00e9", "city": "Barcelona", "lat": 41.37636254954955, "long": 2.1606097477477477, "category": "restaurant", "emojis": "\ud83c\udff7|\ud83d\udd19"},
{"name": "Creperie Bretonne Annaick", "city": "Barcelona", "lat": 41.38275684684685, "long": 2.198742027027027, "category": "restaurant", "emojis": "\ud83d\udc14|\ud83d\udcd6"},
{"name": "La Paradeta", "city": "Barcelona", "lat": 41.387836576576575, "long": 2.186622702702703, "category": "restaurant", "emojis": "\ud83d\udd35|\ud83d\udca8"},
{"name": "Verdi", "city": "Barcelona", "lat": 41.40366332432433, "long": 2.156885099099099, "category": "attraction", "emojis": "\ud83d\udd17|\ud83d\udd73|\ud83d\udc2c"},
{"name": "Quiropractica Sants", "city": "Barcelona", "lat": 41.38127562672583, "long": 2.1353465243522733, "category": "poi", "emojis": "\ud83d\udcaa|\ud83d\udcf9|\ud83d\udc36"},
{"name": "Kahala", "city": "Barcelona", "lat": 41.39389615315315, "long": 2.137166099099099, "category": "restaurant", "emojis": "\ud83d\udc4d\ud83d\udc4d|\ud83d\ude18\ud83d\ude18|\ud83d\ude8a"},
{"name": "NAP", "city": "Barcelona", "lat": 41.3876909009009, "long": 2.1792344504504504, "category": "restaurant", "emojis": "\ud83d\udc6a"},
{"name": "Margarita Blue", "city": "Barcelona", "lat": 41.37479884684685, "long": 2.180219801801802, "category": "restaurant", "emojis": "\ud83d\ude24|\ud83c\udfc4"},
{"name": "Alsur Caf\u00e9 (Palau)", "city": "Barcelona", "lat": 41.38375762162162, "long": 2.174225873873874, "category": "restaurant", "emojis": "\ud83d\ude9a|\ud83d\udc29"},
{"name": "Taverna del Bisbe", "city": "Barcelona", "lat": 41.386282351351355, "long": 2.177594351351351, "category": "restaurant", "emojis": "\ud83d\udee1"},
{"name": "La Vietnamita", "city": "Barcelona", "lat": 41.402964252252254, "long": 2.1597146756756755, "category": "restaurant", "emojis": "\ud83d\ude02|\ud83d\ude0d"},
{"name": "Paso de Zebra festival", "city": "Barcelona", "lat": 41.405863399724325, "long": 2.101849859635946, "category": "attraction", "emojis": "\ud83d\udc80"},
{"name": "Casa Amatller", "city": "Barcelona", "lat": 41.39293735135135, "long": 2.1635474234234233, "category": "attraction", "emojis": "\ud83d\udebf|\ud83d\ude90|\ud83d\udcad"},
{"name": "La Barbacoa De Gr\u00e0cia Restaurant", "city": "Barcelona", "lat": 41.40248494594595, "long": 2.1580101981981983, "category": "restaurant", "emojis": "\ud83d\udc0c|\ud83c\udf45|\ud83c\udf5c"},
{"name": "Starbucks", "city": "Barcelona", "lat": 41.384552126126124, "long": 2.1690037477477477, "category": "restaurant", "emojis": "\ud83c\udf4b|\ud83d\udcc4|\ud83c\udf64"},
{"name": "Dostrece Restaurant", "city": "Barcelona", "lat": 41.382659675675676, "long": 2.1712215765765768, "category": "restaurant", "emojis": "\ud83c\udfc3|\ud83d\udebd|\ud83c\uddf7\ud83c\uddfa"},
{"name": "Parc G\u00fcell", "city": "Barcelona", "lat": 41.41362212813555, "long": 2.149448246998872, "category": "attraction", "emojis": "\ud83d\udcaf|\ud83d\udc14"},
{"name": "Paso de Zebra festival", "city": "Barcelona", "lat": 41.405412949273874, "long": 2.1038768866629733, "category": "attraction", "emojis": "\ud83c\udf7b|\ud83c\uddee\ud83c\udde9"},
{"name": "Quimet & Quimet", "city": "Barcelona", "lat": 41.37463267567567, "long": 2.1639674234234234, "category": "restaurant", "emojis": "\ud83d\ude06|\ud83d\udd4a"},
{"name": "Botafumeiro", "city": "Barcelona", "lat": 41.40110667567567, "long": 2.1541985495495495, "category": "restaurant", "emojis": "\ud83d\udd14"},
{"name": "Bar Lobo", "city": "Barcelona", "lat": 41.381875648648645, "long": 2.1699023243243243, "category": "restaurant", "emojis": "\ud83c\udf5c|\ud83c\udfc4"},
{"name": "Miramar Restaurant Garden & Club", "city": "Barcelona", "lat": 41.37384208222171, "long": 2.1749972357503773, "category": "restaurant", "emojis": "\ud83d\udce7|\ud83c\udde9\ud83c\uddea|\ud83c\uddf7\ud83c\uddfa"},
{"name": "Ciudad Condal", "city": "Barcelona", "lat": 41.39173792792793, "long": 2.165453648648649, "category": "restaurant", "emojis": "\ud83d\udcc8|\ud83d\udc25|\ud83d\udca1"},
{"name": "Museu Nacional d'Art de Catalunya", "city": "Barcelona", "lat": 41.365737297297294, "long": 2.1560474774774776, "category": "attraction", "emojis": "\ud83d\udea2"},
{"name": "El Tio Che", "city": "Barcelona", "lat": 41.3991540990991, "long": 2.201548648648649, "category": "restaurant", "emojis": "\ud83c\udf21"},
{"name": "Restaurante El Rac\u00f3", "city": "Barcelona", "lat": 41.38940745045045, "long": 2.169041927927928, "category": "restaurant", "emojis": "\ud83c\uddf5\ud83c\uddf7"},
{"name": "Farggi", "city": "Barcelona", "lat": 41.38796780180181, "long": 2.1977535495495495, "category": "restaurant", "emojis": "\ud83d\ude0d\ud83d\udc98"},
{"name": "La Bodegueta del Poble Sec", "city": "Barcelona", "lat": 41.37094084684685, "long": 2.1610607477477477, "category": "restaurant", "emojis": "\ud83d\udcd6|\ud83c\udfa6"},
{"name": "Rosal 34", "city": "Barcelona", "lat": 41.373819675675676, "long": 2.169396927927928, "category": "restaurant", "emojis": "\ud83d\udc1a|\ud83c\udfad"},
{"name": "Mobile World Centre", "city": "Barcelona", "lat": 41.385584193730644, "long": 2.1691676870122225, "category": "poi", "emojis": "\ud83d\udc37|\ud83c\udfeb"},
{"name": "Parc G\u00fcell", "city": "Barcelona", "lat": 41.415874380387805, "long": 2.1519257244763494, "category": "attraction", "emojis": "\ud83c\uddf5\ud83c\uddfc|\ud83d\udc04|\ud83c\udfc8"},
{"name": "Galeria Manbrot", "city": "Barcelona", "lat": 41.3823211981982, "long": 2.182827027027027, "category": "attraction", "emojis": "\ud83d\udc37|\ud83d\udca8"},
{"name": "La Dol\u00e7a Herm\u00ednia Restaurant", "city": "Barcelona", "lat": 41.38622354954955, "long": 2.1751236756756755, "category": "restaurant", "emojis": "\ud83c\udf45"},
{"name": "Centre Comercial Arenas de Barcelona", "city": "Barcelona", "lat": 41.374041067255746, "long": 2.150412396267726, "category": "attraction", "emojis": "\ud83c\udf2e"},
{"name": "Cervecer\u00eda Catalana", "city": "Barcelona", "lat": 41.393047675675675, "long": 2.1612674504504508, "category": "restaurant", "emojis": "\ud83d\udc65|\ud83d\udc83"},
{"name": "Pla\u00e7a Reial", "city": "Barcelona", "lat": 41.3765056612014, "long": 2.172129086760747, "category": "attraction", "emojis": "\ud83d\udc36|\ud83c\udf5c|\ud83c\udf62"},
{"name": "Bar Ca\u00f1ete", "city": "Barcelona", "lat": 41.37577862162162, "long": 2.174688576576577, "category": "restaurant", "emojis": "\ud83d\udeac|\ud83d\udcfb|\ud83d\udebd"},
{"name": "Ciudad Condal", "city": "Barcelona", "lat": 41.39173792792793, "long": 2.169958153153153, "category": "restaurant", "emojis": "\ud83c\udfa8|\ud83d\udc62|\ud83c\udf7b"},
{"name": "Parada Bus 0612", "city": "Barcelona", "lat": 41.408487727246474, "long": 2.1328480673551486, "category": "poi", "emojis": "\ud83d\udcb0|\ud83c\udde6\ud83c\uddfa"},
{"name": "Vivanda", "city": "Barcelona", "lat": 41.402959477477474, "long": 2.1191511981981983, "category": "restaurant", "emojis": "\ud83c\udf42|\ud83c\udf0b|\ud83c\uddfa\ud83c\uddf8"},
{"name": "The George Payne Irish Bar", "city": "Barcelona", "lat": 41.388816324324324, "long": 2.1696056216216215, "category": "restaurant", "emojis": "\ud83d\udc80|\ud83d\udce7"},
{"name": "Xiringuito Escrib\u00e0", "city": "Barcelona", "lat": 41.394195675675675, "long": 2.204429099099099, "category": "restaurant", "emojis": "\ud83c\udf21|\ud83d\udc8e|\ud83d\udd34"},
{"name": "La Flauta", "city": "Barcelona", "lat": 41.38577387387387, "long": 2.159321198198198, "category": "restaurant", "emojis": "\ud83c\udf31|\ud83d\udc0d|\ud83c\udfe2"},
{"name": "CosmoCaixa", "city": "Barcelona", "lat": 41.41632415315315, "long": 2.1299850990990987, "category": "attraction", "emojis": "\ud83c\uddf5\ud83c\uddf9|\ud83c\udf1f\ud83c\udf1f\ud83c\udf1f\ud83c\udf1f\ud83c\udf1f|\ud83c\udde6\ud83c\udde9"},
{"name": "Cuines Santa Caterina", "city": "Barcelona", "lat": 41.38580554954955, "long": 2.179341351351351, "category": "restaurant", "emojis": "\ud83d\udd1d|\ud83d\udc31|\ud83c\udfa3"},
{"name": "Museu Nacional d'Art de Catalunya", "city": "Barcelona", "lat": 41.370467027027026, "long": 2.1540204504504508, "category": "attraction", "emojis": "\ud83d\udc3b|\ud83d\udc04|\ud83d\udc59"},
{"name": "Panader\u00eda Tallers", "city": "Barcelona", "lat": 41.38412032432433, "long": 2.1635057207207207, "category": "restaurant", "emojis": "\ud83c\udf4e"},
{"name": "La Font Del Gat", "city": "Barcelona", "lat": 41.37052125225225, "long": 2.1560151981981983, "category": "restaurant", "emojis": "\ud83d\udd0a|\ud83c\udfb9"},
{"name": "Royal Hotels", "city": "Barcelona", "lat": 41.396181598847576, "long": 2.165457939093828, "category": "accommodation", "emojis": "\ud83c\udfab|\ud83d\udc83|\ud83c\udfe0"},
{"name": "Parc G\u00fcell", "city": "Barcelona", "lat": 41.41655005606348, "long": 2.1528266253772506, "category": "attraction", "emojis": "\ud83d\udc44"},
{"name": "la pubilla del taulat", "city": "Barcelona", "lat": 41.39733352252252, "long": 2.207491027027027, "category": "restaurant", "emojis": "\ud83c\udf3f|\ud83c\udf83|\ud83d\udeab"},
{"name": "Cuines Santa Caterina", "city": "Barcelona", "lat": 41.38422897297298, "long": 2.1766386486486486, "category": "restaurant", "emojis": "\ud83d\udcaa|\ud83d\ude18\ud83d\ude18|\ud83c\udfb9"},
{"name": "Parisii Bistrot", "city": "Barcelona", "lat": 41.38666154954955, "long": 2.162288576576577, "category": "restaurant", "emojis": "\ud83c\uddf2\ud83c\udde6|\ud83d\udd0d"},
{"name": "Parc G\u00fcell", "city": "Barcelona", "lat": 41.41339690291033, "long": 2.1548536524042774, "category": "attraction", "emojis": "\ud83c\udf63"},
{"name": "Bestial", "city": "Barcelona", "lat": 41.38371552252252, "long": 2.1981394504504506, "category": "restaurant", "emojis": "\ud83d\udcc5|\ud83d\ude4f"},
{"name": "Milk Bar & Bistro Restaurant", "city": "Barcelona", "lat": 41.382668351351356, "long": 2.181486351351351, "category": "restaurant", "emojis": "\ud83d\udc19|\ud83c\udfb7"},
{"name": "Bar Lobo", "city": "Barcelona", "lat": 41.38390267567567, "long": 2.169677099099099, "category": "restaurant", "emojis": "\ud83c\udf88|\ud83d\udd0a|\ud83d\udd58"},
{"name": "Pulper\u00eda A Gudi\u00f1a", "city": "Barcelona", "lat": 41.37346097297297, "long": 2.153114846846847, "category": "restaurant", "emojis": "\ud83d\udd78|\ud83d\udd28|\ud83c\udfdf"},
{"name": "Refugi 307", "city": "Barcelona", "lat": 41.37493985715738, "long": 2.164145370813797, "category": "poi", "emojis": "\ud83c\uddf2\ud83c\uddfb"},
{"name": "Can Margarit", "city": "Barcelona", "lat": 41.37388567567567, "long": 2.158686648648649, "category": "restaurant", "emojis": "\ud83d\udd73"},
{"name": "Aire de Barcelona", "city": "Barcelona", "lat": 41.38641032432432, "long": 2.181967423423423, "category": "attraction", "emojis": "\ud83d\udebf|\ud83c\udf84"},
{"name": "Casa Amatller", "city": "Barcelona", "lat": 41.38910852252252, "long": 2.167151027027027, "category": "attraction", "emojis": "\ud83d\udc26"},
{"name": "Cervecer\u00eda Catalana", "city": "Barcelona", "lat": 41.3905701981982, "long": 2.1619431261261264, "category": "restaurant", "emojis": "\ud83d\udd09|\ud83d\ude0d|\ud83d\ude0e"},
{"name": "El Vaso De Oro", "city": "Barcelona", "lat": 41.38299912612612, "long": 2.186021873873874, "category": "restaurant", "emojis": "\ud83d\ude31|\ud83c\udf4c\ud83c\udf69"},
{"name": "Hard Rock Cafe Barcelona", "city": "Barcelona", "lat": 41.38643845045045, "long": 2.172737801801802, "category": "restaurant", "emojis": "\ud83c\udf5c"},
{"name": "Taller De Tapas", "city": "Barcelona", "lat": 41.3863747027027, "long": 2.1799123243243246, "category": "restaurant", "emojis": "\ud83d\udc56"},
{"name": "URA Restaurant & Lounge", "city": "Barcelona", "lat": 41.391024648648646, "long": 2.1463134504504504, "category": "restaurant", "emojis": "\ud83c\udf7b|\ud83c\udf2a|\ud83c\uddf1\ud83c\udde7"},
{"name": "Rac\u00f3 de la Vila", "city": "Barcelona", "lat": 41.39865022279913, "long": 2.2005692891600512, "category": "restaurant", "emojis": "\ud83c\udf2d|\ud83d\udecb|\ud83c\udf08"},
{"name": "El Filete Ruso", "city": "Barcelona", "lat": 41.391001423423425, "long": 2.1552213243243243, "category": "restaurant", "emojis": "\ud83c\udde7\ud83c\uddec|\ud83c\udfe6|\ud83d\ude0d\ud83d\udc98"},
{"name": "Rosti Restaurant", "city": "Barcelona", "lat": 41.386903900900904, "long": 2.197429900900901, "category": "restaurant", "emojis": "\ud83d\udc02|\ud83d\udd0d|\ud83d\ude0a"},
{"name": "federal caf\u00e9", "city": "Barcelona", "lat": 41.37726345045045, "long": 2.1610601981981983, "category": "restaurant", "emojis": "\ud83d\udc56|\ud83d\udc6e|\ud83c\udf83"},
{"name": "Mirablau", "city": "Barcelona", "lat": 41.41669467567567, "long": 2.1334765765765766, "category": "restaurant", "emojis": "\ud83d\udd50"},
{"name": "Thai Gardens", "city": "Barcelona", "lat": 41.39479382882883, "long": 2.1664618738738737, "category": "restaurant", "emojis": "\ud83c\udf74|\ud83d\udcdb"},
{"name": "Bar Mut", "city": "Barcelona", "lat": 41.39688554954955, "long": 2.1628815765765768, "category": "restaurant", "emojis": "\ud83d\udcdb|\ud83d\udc75"},
{"name": "Centro de Cultura Contempor\u00e1nea de Barcelona", "city": "Barcelona", "lat": 41.3846649009009, "long": 2.167395900900901, "category": "attraction", "emojis": "\ud83d\ude8f|\ud83c\udf50|\ud83c\udfff"},
{"name": "La Taverna del Born", "city": "Barcelona", "lat": 41.384712324324326, "long": 2.1824343243243245, "category": "restaurant", "emojis": "\ud83c\udf53"},
{"name": "Ciudad Condal", "city": "Barcelona", "lat": 41.391512702702705, "long": 2.1663545495495495, "category": "restaurant", "emojis": "\ud83d\udc19"},
{"name": "La Font Del Gat", "city": "Barcelona", "lat": 41.366917648648645, "long": 2.1582674504504507, "category": "restaurant", "emojis": "\ud83c\uddea\ud83c\uddf8"},
{"name": "Sagrada Fam\u00edlia", "city": "Barcelona", "lat": 41.40419094503867, "long": 2.171195678023647, "category": "attraction", "emojis": "\ud83c\uddf5\ud83c\uddf9"},
{"name": "CosmoCaixa", "city": "Barcelona", "lat": 41.41632415315315, "long": 2.1272823963963963, "category": "attraction", "emojis": "\ud83c\uddf5\ud83c\udde6|\ud83c\udf84"},
{"name": "Bormuth", "city": "Barcelona", "lat": 41.385134324324326, "long": 2.183611126126126, "category": "restaurant", "emojis": "\ud83c\udf6a|\ud83c\udf86|\ud83d\udcfa"},
{"name": "Jamboree", "city": "Barcelona", "lat": 41.38287615315315, "long": 2.172147846846847, "category": "attraction", "emojis": "\ud83d\udc62|\ud83c\udde6\ud83c\uddfa"},
{"name": "Kahala", "city": "Barcelona", "lat": 41.3871393963964, "long": 2.1376165495495494, "category": "restaurant", "emojis": "\ud83d\udc5b|\ud83d\udc4b|\ud83c\udf93"},
{"name": "Bilbao Berria", "city": "Barcelona", "lat": 41.38529112612613, "long": 2.1743073243243245, "category": "restaurant", "emojis": "\ud83c\udfe7|\ud83c\udf78|\ud83c\udfb5"},
{"name": "Starbucks", "city": "Barcelona", "lat": 41.38932935135135, "long": 2.166803873873874, "category": "restaurant", "emojis": "\ud83c\udfd6|\ud83d\udc2c"},
{"name": "Marina Moncho's", "city": "Barcelona", "lat": 41.38839602702703, "long": 2.1982186756756756, "category": "restaurant", "emojis": "\ud83d\udebe|\ud83c\udf62|\ud83c\udfe7"},
{"name": "Paco Meralgo", "city": "Barcelona", "lat": 41.390941324324324, "long": 2.155521927927928, "category": "restaurant", "emojis": "\ud83d\udd73|\ud83c\udf6f|\ud83d\udd2e"},
{"name": "La Gavina", "city": "Barcelona", "lat": 41.379948324324324, "long": 2.1838006486486488, "category": "restaurant", "emojis": "\ud83c\uddef\ud83c\uddf4"},
{"name": "Renoir Floridablanca", "city": "Barcelona", "lat": 41.383896252252256, "long": 2.1618703243243242, "category": "attraction", "emojis": "\ud83d\udc68|\ud83d\udea7"},
{"name": "Can Paixano", "city": "Barcelona", "lat": 41.38125754954955, "long": 2.182520099099099, "category": "restaurant", "emojis": "\ud83d\udebb|\ud83c\udf50"},
{"name": "Thai Gardens", "city": "Barcelona", "lat": 41.388262297297295, "long": 2.1696150270270267, "category": "restaurant", "emojis": "\ud83d\udc5c|\ud83c\udf4b|\ud83d\udcf9"},
{"name": "Can Paixano", "city": "Barcelona", "lat": 41.38013142342343, "long": 2.1827453243243244, "category": "restaurant", "emojis": "\ud83d\udcd6|\ud83c\udf63|\ud83d\udc52"},
{"name": "Rekons Urgell", "city": "Barcelona", "lat": 41.381878351351354, "long": 2.1604765495495495, "category": "restaurant", "emojis": "\ud83d\udc04"},
{"name": "Bar Oviso", "city": "Barcelona", "lat": 41.3798010990991, "long": 2.1793762522522524, "category": "restaurant", "emojis": "\ud83d\udd60"},
{"name": "La Fonda", "city": "Barcelona", "lat": 41.37764142342343, "long": 2.173543297297297, "category": "restaurant", "emojis": "\ud83d\udcad|\ud83d\udc23|\ud83c\udf2a"},
{"name": "Alsur Caf\u00e9 (El Born)", "city": "Barcelona", "lat": 41.38843780180181, "long": 2.1765956216216216, "category": "restaurant", "emojis": "\ud83c\udde6\ud83c\uddf6|\ud83d\udc1b"},
{"name": "Cuines Santa Caterina", "city": "Barcelona", "lat": 41.38558032432433, "long": 2.1775395495495493, "category": "restaurant", "emojis": "\ud83d\udc45"},
{"name": "Montju\u00efc Castle", "city": "Barcelona", "lat": 41.36716315315315, "long": 2.162580072072072, "category": "attraction", "emojis": "\ud83c\udfc3|\ud83d\udcde|\ud83d\udc0d"},
{"name": "Ciudad Condal", "city": "Barcelona", "lat": 41.387683873873875, "long": 2.1690572522522524, "category": "restaurant", "emojis": "\ud83c\udfe7|\ud83d\ude4c"},
{"name": "Cervecer\u00eda Catalana", "city": "Barcelona", "lat": 41.38831794594595, "long": 2.158339522522523, "category": "restaurant", "emojis": "\ud83c\udf2a|\ud83c\udf59|\ud83d\udecf"},
{"name": "7 Portes", "city": "Barcelona", "lat": 41.382912675675676, "long": 2.184265900900901, "category": "restaurant", "emojis": "\ud83d\udd78|\ud83d\udc0d"},
{"name": "La Vela", "city": "Barcelona", "lat": 41.393643477477475, "long": 2.195762099099099, "category": "restaurant", "emojis": "\ud83d\udc63|\ud83c\udf62"},
{"name": "De Tapa Madre Restaurant", "city": "Barcelona", "lat": 41.39469774774774, "long": 2.1678793513513512, "category": "restaurant", "emojis": "\ud83d\udd50"},
{"name": "Paco Meralgo", "city": "Barcelona", "lat": 41.39229267567567, "long": 2.1530444504504507, "category": "restaurant", "emojis": "\ud83d\udd74|\ud83c\udfc9|\ud83d\uddfd"},
{"name": "La Botiga (Pedralbes) Restaurant", "city": "Barcelona", "lat": 41.38665842342343, "long": 2.131720351351351, "category": "restaurant", "emojis": "\ud83c\udf2b"},
{"name": "Parc G\u00fcell", "city": "Barcelona", "lat": 41.41339690291033, "long": 2.150574373124998, "category": "attraction", "emojis": "\ud83c\udf62|\ud83d\udd52|\ud83d\ude47"},
{"name": "Razzmatazz", "city": "Barcelona", "lat": 41.39867762257512, "long": 2.195048133699329, "category": "attraction", "emojis": "\ud83c\udfe2|\ud83d\udd0a"},
{"name": "Centre Comercial Arenas de Barcelona", "city": "Barcelona", "lat": 41.37201404022872, "long": 2.1483853692406987, "category": "attraction", "emojis": "\ud83d\udce7|\ud83c\udf89|\ud83d\ude12"},
{"name": "Starbucks", "city": "Barcelona", "lat": 41.386818972972975, "long": 2.1730881261261263, "category": "restaurant", "emojis": "\ud83d\udc9b\ud83d\udc9a|\ud83d\ude09|\ud83d\udc69"},
{"name": "Carrer Ferran", "city": "Barcelona", "lat": 41.37795549203462, "long": 2.1746370021530246, "category": "poi", "emojis": "\ud83c\udf53|\ud83d\udc8d|\ud83d\ude06"},
{"name": "CDLC", "city": "Barcelona", "lat": 41.38563667567567, "long": 2.194004747747748, "category": "restaurant", "emojis": "\ud83d\ude09|\ud83d\udca9"},
{"name": "Absenta Bar", "city": "Barcelona", "lat": 41.37683229729729, "long": 2.1889657477477478, "category": "restaurant", "emojis": "\ud83c\udde7\ud83c\uddf9|\ud83c\udf1e|\ud83c\udf86"},
{"name": "Els 4Gats", "city": "Barcelona", "lat": 41.38777302702702, "long": 2.1750503513513513, "category": "restaurant", "emojis": "\ud83d\udc04|\ud83d\udd73|\ud83c\udf5a"},
{"name": "Takashi Ochiai Pastisseria", "city": "Barcelona", "lat": 41.38844527927928, "long": 2.1573321261261262, "category": "restaurant", "emojis": "\ud83c\udf5f|\ud83d\ude8e|\ud83c\udf73"},
{"name": "Borneo", "city": "Barcelona", "lat": 41.3808004954955, "long": 2.1821773243243245, "category": "restaurant", "emojis": "\ud83d\ude98"},
{"name": "Barcel\u00f3 Raval", "city": "Barcelona", "lat": 41.37516327884217, "long": 2.1680544678289233, "category": "restaurant", "emojis": "\ud83c\udf34"},
{"name": "De Tapa Madre Restaurant", "city": "Barcelona", "lat": 41.3978509009009, "long": 2.1687802522522523, "category": "restaurant", "emojis": "\ud83c\udf5d"},
{"name": "Bar Lobo", "city": "Barcelona", "lat": 41.38007384684685, "long": 2.173280702702703, "category": "restaurant", "emojis": "\ud83c\udf7b"},
{"name": "Caf\u00e9 Zurich", "city": "Barcelona", "lat": 41.386535675675674, "long": 2.168821324324324, "category": "restaurant", "emojis": "\ud83c\udf75"},
{"name": "Bar Lobo", "city": "Barcelona", "lat": 41.3841279009009, "long": 2.167875297297297, "category": "restaurant", "emojis": "\ud83d\udc0d|\ud83c\udfe6"},
{"name": "Borneo", "city": "Barcelona", "lat": 41.38688157657658, "long": 2.1821773243243245, "category": "restaurant", "emojis": "\ud83d\udd78|\ud83d\udebf|\ud83d\uddbc"},
{"name": "Bestial", "city": "Barcelona", "lat": 41.387769576576574, "long": 2.196562873873874, "category": "restaurant", "emojis": "\ud83d\udc6e|\ud83c\uddeb\ud83c\uddee"},
{"name": "NAP", "city": "Barcelona", "lat": 41.38521342342342, "long": 2.175856072072072, "category": "restaurant", "emojis": "\ud83c\udfab"},
{"name": "La Flauta", "city": "Barcelona", "lat": 41.383296396396396, "long": 2.159095972972973, "category": "restaurant", "emojis": "\ud83d\udcdb|\ud83d\ude24|\ud83d\udca5"},
{"name": "Centre Comercial Arenas de Barcelona", "city": "Barcelona", "lat": 41.3753924186071, "long": 2.151763747619077, "category": "attraction", "emojis": "\ud83c\udf47|\ud83c\udf36"},
{"name": "Caf\u00e9 San Telmo", "city": "Barcelona", "lat": 41.39396045045045, "long": 2.152128279279279, "category": "restaurant", "emojis": "\ud83c\uddeb\ud83c\uddee"},
{"name": "CEMEDIQ Centro M\u00e9dico Quir\u00fargico", "city": "Barcelona", "lat": 41.38196082882883, "long": 2.1524718018018016, "category": "poi", "emojis": "\ud83c\udfd9|\ud83d\udcad"},
{"name": "Dostrece Restaurant", "city": "Barcelona", "lat": 41.379506522522526, "long": 2.1730233783783786, "category": "restaurant", "emojis": "\ud83c\udf64"},
{"name": "Bilbao Berria", "city": "Barcelona", "lat": 41.38303887387388, "long": 2.1774604774774775, "category": "restaurant", "emojis": "\ud83d\udd07|\ud83d\udd13|\ud83c\udf39"},
{"name": "Pla\u00e7a de Catalunya", "city": "Barcelona", "lat": 41.38995201674893, "long": 2.1731138903815532, "category": "attraction", "emojis": "\ud83c\udf55|\ud83d\udc2c|\ud83c\udf70"},
{"name": "Starbucks", "city": "Barcelona", "lat": 41.38169945045045, "long": 2.1757204504504504, "category": "restaurant", "emojis": "\ud83d\udecf|\ud83d\udc53|\ud83d\ude00"},
{"name": "Sagrada Fam\u00edlia", "city": "Barcelona", "lat": 41.39968644053417, "long": 2.1750245068524756, "category": "attraction", "emojis": "\ud83d\udc83|\ud83d\uded2|\ud83c\udf5f"},
{"name": "Quimet & Quimet", "city": "Barcelona", "lat": 41.37192997297297, "long": 2.1666701261261263, "category": "restaurant", "emojis": "\ud83c\udf84"},
{"name": "Taverna El Glop", "city": "Barcelona", "lat": 41.405579675675675, "long": 2.1590915495495495, "category": "restaurant", "emojis": "\ud83c\udf4b"},
{"name": "La Dol\u00e7a Herm\u00ednia Restaurant", "city": "Barcelona", "lat": 41.38419652252252, "long": 2.175348900900901, "category": "restaurant", "emojis": "\ud83d\udd27"},
{"name": "Marhes Club", "city": "Barcelona", "lat": 41.37957957286997, "long": 2.1148355758942263, "category": "attraction", "emojis": "\ud83d\udc26|\ud83d\udd13"},
{"name": "La Flauta", "city": "Barcelona", "lat": 41.385548648648644, "long": 2.164276153153153, "category": "restaurant", "emojis": "\ud83c\udf6d|\ud83d\udd12"},
{"name": "Sagrada Fam\u00edlia", "city": "Barcelona", "lat": 41.40419094503867, "long": 2.172321804149773, "category": "attraction", "emojis": "\ud83c\udf2e|\ud83d\udc02"},
{"name": "Mosquito", "city": "Barcelona", "lat": 41.38629487387388, "long": 2.1821695765765767, "category": "restaurant", "emojis": "\ud83d\uddff|\ud83c\udf2b"},
{"name": "Hard Rock Cafe Barcelona", "city": "Barcelona", "lat": 41.38553754954955, "long": 2.169809873873874, "category": "restaurant", "emojis": "\ud83c\udde7\ud83c\uddec"},
{"name": "Milk Bar & Bistro Restaurant", "city": "Barcelona", "lat": 41.38064132432433, "long": 2.1837386036036035, "category": "restaurant", "emojis": "\ud83d\ude47|\ud83d\udcc4|\ud83d\udc49"},
{"name": "La Royale", "city": "Barcelona", "lat": 41.40049907207207, "long": 2.1326386216216213, "category": "restaurant", "emojis": "\ud83d\udeb6|\ud83c\udf07|\ud83d\ude47"},
{"name": "Dostrece Restaurant", "city": "Barcelona", "lat": 41.38356057657658, "long": 2.1712215765765768, "category": "restaurant", "emojis": "\ud83d\ude97"},
{"name": "Milk Bar & Bistro Restaurant", "city": "Barcelona", "lat": 41.38019087387388, "long": 2.1821620270270268, "category": "restaurant", "emojis": "\ud83c\udf7c|\ud83c\udf2b|\ud83c\udf0b"},
{"name": "Los Caracoles", "city": "Barcelona", "lat": 41.381955252252254, "long": 2.1759735495495494, "category": "restaurant", "emojis": "\ud83c\udf75|\ud83d\ude28"},
{"name": "La Muscleria", "city": "Barcelona", "lat": 41.398512027027024, "long": 2.169351927927928, "category": "restaurant", "emojis": "\ud83d\udc34|\ud83c\udf4c"},
{"name": "Bracaf\u00e9", "city": "Barcelona", "lat": 41.389686900900905, "long": 2.1725794774774774, "category": "restaurant", "emojis": "\ud83c\udf30"},
{"name": "Alsur Caf\u00e9 (Palau)", "city": "Barcelona", "lat": 41.38510897297297, "long": 2.1767033513513514, "category": "restaurant", "emojis": "\ud83c\udfc4|\ud83c\udf42"},
{"name": "Giulietta Cafe", "city": "Barcelona", "lat": 41.394935675675676, "long": 2.1722356216216214, "category": "restaurant", "emojis": "\ud83d\udc6e"},
{"name": "Frankfurt Pedralbes", "city": "Barcelona", "lat": 41.3908058833296, "long": 2.114325309360802, "category": "restaurant", "emojis": "\ud83c\udf0b|\ud83d\uddff"},
{"name": "Cervecer\u00eda Catalana", "city": "Barcelona", "lat": 41.393272900900904, "long": 2.158564747747748, "category": "restaurant", "emojis": "\ud83d\udeb6"},
{"name": "Parc del laberint - Jard\u00ed museu", "city": "Barcelona", "lat": 41.4434386036036, "long": 2.1485272522522525, "category": "attraction", "emojis": "\ud83c\udf52|\ud83d\udc02|\ud83c\uddfb\ud83c\uddf3"},
{"name": "Mosquito", "city": "Barcelona", "lat": 41.38697054954955, "long": 2.1783407477477477, "category": "restaurant", "emojis": "\ud83d\ude1f|\ud83d\udebe|\ud83d\ude8c"},
{"name": "Parc G\u00fcell", "city": "Barcelona", "lat": 41.415198704712125, "long": 2.1537275262781512, "category": "attraction", "emojis": "\ud83c\udf74|\ud83c\udf4c\ud83c\udf69"},
{"name": "Choquito", "city": "Barcelona", "lat": 41.38517992792793, "long": 2.1761566036036037, "category": "restaurant", "emojis": "\ud83d\udee1|\ud83c\udfad|\ud83c\udf30"},
{"name": "Bar Oviso", "city": "Barcelona", "lat": 41.38205335135135, "long": 2.1775744504504506, "category": "restaurant", "emojis": "\ud83d\udc44|\ud83c\udf32"},
{"name": "Fragments Caf\u00e9", "city": "Barcelona", "lat": 41.3875579009009, "long": 2.1329484504504506, "category": "restaurant", "emojis": "\ud83c\udf08|\ud83d\ude32"},
{"name": "Barcel\u00f3 Raval", "city": "Barcelona", "lat": 41.3780912067701, "long": 2.1678292426036982, "category": "restaurant", "emojis": "\ud83c\udfac|\ud83d\udc14|\ud83c\udf6f"},
{"name": "Paso de Zebra festival", "city": "Barcelona", "lat": 41.405863399724325, "long": 2.1072552650413514, "category": "attraction", "emojis": "\ud83d\udc10|\ud83d\ude80|\ud83d\udea7"},
{"name": "Farggi", "city": "Barcelona", "lat": 41.38481464864865, "long": 2.195501297297297, "category": "restaurant", "emojis": "\ud83c\udf5e"},
{"name": "O Meu Lar Restaurant", "city": "Barcelona", "lat": 41.376093477477475, "long": 2.1612757477477476, "category": "restaurant", "emojis": "\ud83d\udecd|\ud83d\ude47"},
{"name": "Parc de la Ciutadella", "city": "Barcelona", "lat": 41.38857730119045, "long": 2.185474875166624, "category": "attraction", "emojis": "\ud83d\udc90|\ud83c\udf44|\ud83d\udc23"},
{"name": "Aire de Barcelona", "city": "Barcelona", "lat": 41.38505897297297, "long": 2.181967423423423, "category": "attraction", "emojis": "\ud83c\udf89|\ud83d\udcef|\ud83c\udf82"},
{"name": "Kin Sushi Bar", "city": "Barcelona", "lat": 41.38498987387388, "long": 2.152156252252252, "category": "restaurant", "emojis": "\ud83d\udc26|\ud83c\uddee\ud83c\uddf9"},
{"name": "Paco Meralgo", "city": "Barcelona", "lat": 41.394995378378376, "long": 2.149891297297297, "category": "restaurant", "emojis": "\ud83d\udec0|\ud83d\udca6|\ud83d\ude22"},
{"name": "Can Kenji", "city": "Barcelona", "lat": 41.39986332432433, "long": 2.1638452972972972, "category": "restaurant", "emojis": "\ud83d\ude28|\ud83d\ude20"},
{"name": "Xemei", "city": "Barcelona", "lat": 41.3723519009009, "long": 2.161425675675676, "category": "restaurant", "emojis": "\ud83d\udecb|\ud83c\udf81|\ud83c\udf47"},
{"name": "CosmoCaixa", "city": "Barcelona", "lat": 41.41272054954955, "long": 2.1286337477477475, "category": "attraction", "emojis": "\ud83d\udc36"},
{"name": "Parc G\u00fcell", "city": "Barcelona", "lat": 41.411369875883295, "long": 2.150574373124998, "category": "attraction", "emojis": "\ud83d\udc63|\ud83c\uddeb\ud83c\uddf7|\ud83d\udc6a"},
{"name": "Bar El Vel\u00f3dromo", "city": "Barcelona", "lat": 41.394590126126126, "long": 2.148376198198198, "category": "restaurant", "emojis": "\ud83d\udcd6|\ud83c\uddfa\ud83c\uddf8"},
{"name": "Pla\u00e7a de Tetuan", "city": "Barcelona", "lat": 41.397580702702705, "long": 2.174476873873874, "category": "attraction", "emojis": "\ud83d\udc52"},
{"name": "Montju\u00efc Castle", "city": "Barcelona", "lat": 41.362208198198196, "long": 2.1659584504504505, "category": "attraction", "emojis": "\ud83d\udc0d|\ud83c\udde8\ud83c\uddf3|\ud83d\udc59"},
{"name": "CDLC", "city": "Barcelona", "lat": 41.38113217117117, "long": 2.193103846846847, "category": "restaurant", "emojis": "\ud83d\udccf|\ud83d\udc3b"},
{"name": "Cup and Cake", "city": "Barcelona", "lat": 41.39291764864865, "long": 2.154989351351351, "category": "restaurant", "emojis": "\ud83d\udc46"},
{"name": "CDLC", "city": "Barcelona", "lat": 41.38113217117117, "long": 2.1955813243243245, "category": "restaurant", "emojis": "\ud83c\udfe8|\ud83d\udcef|\ud83c\udf88"},
{"name": "El Pibe", "city": "Barcelona", "lat": 41.409295801801804, "long": 2.1488364504504505, "category": "restaurant", "emojis": "\ud83d\udc25"},
{"name": "Sandwich & Friends", "city": "Barcelona", "lat": 41.38371742342343, "long": 2.1865083783783783, "category": "restaurant", "emojis": "\ud83d\udd14"},
{"name": "The George Payne Irish Bar", "city": "Barcelona", "lat": 41.388140648648644, "long": 2.171632648648649, "category": "restaurant", "emojis": "\ud83d\ude47|\ud83d\udc9e"},
{"name": "La Paradeta", "city": "Barcelona", "lat": 41.38873747747748, "long": 2.1852713513513513, "category": "restaurant", "emojis": "\ud83d\udc0d|\ud83c\udf82"},
{"name": "Cuines Santa Caterina", "city": "Barcelona", "lat": 41.387156900900905, "long": 2.1770890990990988, "category": "restaurant", "emojis": "\ud83d\udea7|\ud83d\udc8d|\ud83c\udf30"},
{"name": "Portal de l'\u00c0ngel", "city": "Barcelona", "lat": 41.38616379094645, "long": 2.1721668622370234, "category": "poi", "emojis": "\ud83d\udd13|\ud83d\udcf7"},
{"name": "The Sutton Club", "city": "Barcelona", "lat": 41.39667867567567, "long": 2.1537140270270267, "category": "attraction", "emojis": "\ud83c\udfd9|\ud83d\ude34|\ud83d\udc0e"},
{"name": "Starbucks", "city": "Barcelona", "lat": 41.387077099099095, "long": 2.1652272972972972, "category": "restaurant", "emojis": "\ud83c\udf5c|\ud83c\udf7b"},
{"name": "Montju\u00efc Castle", "city": "Barcelona", "lat": 41.3604063963964, "long": 2.1691116036036036, "category": "attraction", "emojis": "\ud83d\ude12|\ud83c\udf88|\ud83c\uddf5\ud83c\uddf9"},
{"name": "Cal Pep Restaurant", "city": "Barcelona", "lat": 41.38685492792793, "long": 2.1829605495495494, "category": "restaurant", "emojis": "\ud83c\udf9e|\ud83c\uddf2\ud83c\udde6"},
{"name": "Paco Meralgo", "city": "Barcelona", "lat": 41.388013396396396, "long": 2.1537201261261263, "category": "restaurant", "emojis": "\ud83c\uddea\ud83c\uddfa|\ud83c\udfd3|\ud83d\udc74"},
{"name": "El Tragaluz", "city": "Barcelona", "lat": 41.392512747747745, "long": 2.1597483243243243, "category": "restaurant", "emojis": "\ud83d\udcc9"},
{"name": "Maybe Barcelona", "city": "Barcelona", "lat": 41.3803873613361, "long": 2.112391788671473, "category": "attraction", "emojis": "\ud83d\udd27"},
{"name": "NAP", "city": "Barcelona", "lat": 41.385663873873874, "long": 2.181711927927928, "category": "restaurant", "emojis": "\ud83c\udf9e|\ud83d\ude30"},
{"name": "Pla\u00e7a de Catalunya", "city": "Barcelona", "lat": 41.39017724197415, "long": 2.167708484976148, "category": "attraction", "emojis": "\ud83d\udca5|\ud83d\ude0a|\ud83c\udf2f"},
{"name": "Picasso Museum", "city": "Barcelona", "lat": 41.38447732432433, "long": 2.1814384504504507, "category": "attraction", "emojis": "\ud83c\udfd3"},
{"name": "Otto Zutz", "city": "Barcelona", "lat": 41.40107567567567, "long": 2.1515965765765768, "category": "attraction", "emojis": "\ud83c\uddee\ud83c\udde9|\ud83c\udfb6|\ud83c\udde6\ud83c\udde9"},
{"name": "Doble Zer00 Restaurant", "city": "Barcelona", "lat": 41.38722932432433, "long": 2.180606801801802, "category": "restaurant", "emojis": "\ud83d\udcf1"},
{"name": "Casa Mil\u00e0", "city": "Barcelona", "lat": 41.39846215315315, "long": 2.162735900900901, "category": "attraction", "emojis": "\ud83d\udc66"},
{"name": "Bar Oviso", "city": "Barcelona", "lat": 41.379125423423424, "long": 2.1814032792792792, "category": "restaurant", "emojis": "\ud83c\udff7"},
{"name": "El Cangrejo Loco", "city": "Barcelona", "lat": 41.388375675675675, "long": 2.1993165225225226, "category": "restaurant", "emojis": "\ud83d\ude30|\ud83d\udd2c"},
{"name": "Restaurant Agua", "city": "Barcelona", "lat": 41.38789148875115, "long": 2.195421809658399, "category": "restaurant", "emojis": "\ud83d\udc4e|\ud83c\udf4b"},
{"name": "El Xampanyet", "city": "Barcelona", "lat": 41.3827041981982, "long": 2.182763126126126, "category": "restaurant", "emojis": "\ud83d\ude89|\ud83c\udf93|\ud83c\udded\ud83c\uddf0"},
{"name": "Flamant", "city": "Barcelona", "lat": 41.38645397297297, "long": 2.1629095765765767, "category": "restaurant", "emojis": "\ud83c\udfdf"},
{"name": "CDLC", "city": "Barcelona", "lat": 41.38563667567567, "long": 2.1958065495495496, "category": "restaurant", "emojis": "\ud83c\uddf8\ud83c\uddea|\ud83d\udecd|\ud83c\udf34"},
{"name": "7 Portes", "city": "Barcelona", "lat": 41.38606582882883, "long": 2.180662297297297, "category": "restaurant", "emojis": "\ud83c\udfb6|\ud83c\udf34"},
{"name": "federal caf\u00e9", "city": "Barcelona", "lat": 41.37478597297297, "long": 2.1608349729729732, "category": "restaurant", "emojis": "\ud83d\udc10"},
{"name": "La Esquinica", "city": "Barcelona", "lat": 41.43117967567567, "long": 2.171951675675676, "category": "restaurant", "emojis": "\ud83d\udea2|\ud83d\udc5f|\ud83c\uddec\ud83c\udde7"},
{"name": "Bar Ca\u00f1ete", "city": "Barcelona", "lat": 41.38231015315315, "long": 2.1742381261261263, "category": "restaurant", "emojis": "\ud83c\udfc6|\ud83d\ude87|\ud83d\ude98"},
{"name": "Bestial", "city": "Barcelona", "lat": 41.3852920990991, "long": 2.2001664774774774, "category": "restaurant", "emojis": "\ud83c\udfb5|\ud83d\udcaf"},
{"name": "Rosa Negra", "city": "Barcelona", "lat": 41.38691945045045, "long": 2.1735759729729733, "category": "restaurant", "emojis": "\ud83c\udfd6|\ud83d\udd64"},
{"name": "BEST WESTERN Hotel ALFA Aeropuerto", "city": "Barcelona", "lat": 41.327488547710324, "long": 2.110191435856872, "category": "accommodation", "emojis": "\ud83c\udf74|\ud83d\udcaa"},
{"name": "Bestial", "city": "Barcelona", "lat": 41.38731912612612, "long": 2.1972385495495494, "category": "restaurant", "emojis": "\ud83c\udded\ud83c\uddf0"},
{"name": "Portal de l'\u00c0ngel", "city": "Barcelona", "lat": 41.384812439595095, "long": 2.174644339714501, "category": "poi", "emojis": "\ud83d\ude28"},
{"name": "Rosti Restaurant", "city": "Barcelona", "lat": 41.38555254954955, "long": 2.1999073783783785, "category": "restaurant", "emojis": "\ud83c\udfa8"},
{"name": "Parc G\u00fcell", "city": "Barcelona", "lat": 41.4149734794869, "long": 2.150574373124998, "category": "attraction", "emojis": "\ud83c\udfed|\ud83d\udc04|\ud83c\uddf7\ud83c\uddfa"},
{"name": "Quimet & Quimet", "city": "Barcelona", "lat": 41.373281324324324, "long": 2.1648683243243245, "category": "restaurant", "emojis": "\ud83d\udd4a|\ud83d\udd07"},
{"name": "Mies van der Rohe Pavilion", "city": "Barcelona", "lat": 41.369909324324325, "long": 2.1476777477477476, "category": "attraction", "emojis": "\ud83d\udcad|\ud83d\ude2f|\ud83c\udfab"},
{"name": "Barcelona Zoo", "city": "Barcelona", "lat": 41.3859220990991, "long": 2.191697351351351, "category": "attraction", "emojis": "\ud83c\udf76"},
{"name": "Centro de Cultura Contempor\u00e1nea de Barcelona", "city": "Barcelona", "lat": 41.38083607207207, "long": 2.1671706756756755, "category": "attraction", "emojis": "\ud83d\ude24"},
{"name": "Starbucks", "city": "Barcelona", "lat": 41.37877152252252, "long": 2.1743690990990987, "category": "restaurant", "emojis": "\ud83d\udcde"},
{"name": "Cervecer\u00eda Catalana", "city": "Barcelona", "lat": 41.39102064864865, "long": 2.1581142972972973, "category": "restaurant", "emojis": "\ud83d\udd1d|\ud83c\udf7a"},
{"name": "CDLC", "city": "Barcelona", "lat": 41.38180784684685, "long": 2.1958065495495496, "category": "restaurant", "emojis": "\ud83c\udf75|\ud83c\udf0a|\ud83c\udfaf"},
{"name": "La Barca del Salamanca", "city": "Barcelona", "lat": 41.385515747747746, "long": 2.2009923243243246, "category": "restaurant", "emojis": "\ud83c\udf69|\ud83d\udce6"},
{"name": "Mandarin Oriental", "city": "Barcelona", "lat": 41.39433524022293, "long": 2.1656928752371987, "category": "accommodation", "emojis": "\ud83d\udc09|\ud83c\uddee\ud83c\udde9"},
{"name": "CosmoCaixa", "city": "Barcelona", "lat": 41.41699982882883, "long": 2.132012126126126, "category": "attraction", "emojis": "\ud83c\uddea\ud83c\uddfa|\ud83d\udecb|\ud83d\udec0"},
{"name": "Centro de Cultura Contempor\u00e1nea de Barcelona", "city": "Barcelona", "lat": 41.38421445045045, "long": 2.164918423423423, "category": "attraction", "emojis": "\ud83d\udcad|\ud83d\udc6b"},
{"name": "Barcel\u00f3 Raval", "city": "Barcelona", "lat": 41.38237048604938, "long": 2.1718832966577524, "category": "restaurant", "emojis": "\ud83d\udca1"},
{"name": "El Vaso De Oro", "city": "Barcelona", "lat": 41.38615227927928, "long": 2.1864723243243245, "category": "restaurant", "emojis": "\ud83d\ude4f"},
{"name": "Maybe Barcelona", "city": "Barcelona", "lat": 41.380162136110876, "long": 2.113517914797599, "category": "attraction", "emojis": "\ud83c\uddf5\ud83c\udde6|\ud83d\udc3b"},
{"name": "La Candela", "city": "Barcelona", "lat": 41.39269837837838, "long": 2.181805927927928, "category": "restaurant", "emojis": "\ud83c\udde8\ud83c\uddf3"},
{"name": "La Rita", "city": "Barcelona", "lat": 41.392491324324325, "long": 2.1655005495495496, "category": "restaurant", "emojis": "\ud83c\udfff|\ud83c\uddf9\ud83c\udded|\ud83d\udc31"},
{"name": "SMS Del\u00edcies", "city": "Barcelona", "lat": 41.40266132432433, "long": 2.155803576576577, "category": "restaurant", "emojis": "\ud83c\udf4b"},
{"name": "Port Ol\u00edmpic", "city": "Barcelona", "lat": 41.3887695446218, "long": 2.196966342238647, "category": "attraction", "emojis": "\ud83d\udc5b|\ud83d\udc31"},
{"name": "La Rita", "city": "Barcelona", "lat": 41.39113997297297, "long": 2.165050099099099, "category": "restaurant", "emojis": "\ud83d\udc43|\ud83d\ude0d"},
{"name": "El Xampanyet", "city": "Barcelona", "lat": 41.38608257657658, "long": 2.1823126756756754, "category": "restaurant", "emojis": "\ud83d\ude47"},
{"name": "Rosti Restaurant", "city": "Barcelona", "lat": 41.38870570270271, "long": 2.1940515225225226, "category": "restaurant", "emojis": "\ud83d\ude12"},
{"name": "Restaurant Agua", "city": "Barcelona", "lat": 41.3811347319944, "long": 2.1947461339827234, "category": "restaurant", "emojis": "\ud83c\udde7\ud83c\uddec|\ud83c\udfaa"},
{"name": "El Petit Bangkok", "city": "Barcelona", "lat": 41.404401126126125, "long": 2.1467865495495495, "category": "restaurant", "emojis": "\ud83d\udea3|\ud83d\udc8d"},
{"name": "La Buena Vida", "city": "Barcelona", "lat": 41.397965072072076, "long": 2.2047643783783784, "category": "restaurant", "emojis": "\ud83d\udd1d"},
{"name": "Central Garden Hostel One", "city": "Barcelona", "lat": 41.39376512612613, "long": 2.171463252252252, "category": "accommodation", "emojis": "\ud83d\udc25|\ud83d\udc62"},
{"name": "Bar Oviso", "city": "Barcelona", "lat": 41.38362992792793, "long": 2.1784753513513513, "category": "restaurant", "emojis": "\ud83d\udc76|\ud83d\ude1c|\ud83c\udde7\ud83c\uddec"},
{"name": "Sol de NIT", "city": "Barcelona", "lat": 41.400021198198196, "long": 2.155992099099099, "category": "restaurant", "emojis": "\ud83c\udf67|\ud83d\udcbf"},
{"name": "Paco Meralgo", "city": "Barcelona", "lat": 41.388013396396396, "long": 2.1507921981981983, "category": "restaurant", "emojis": "\ud83d\udec0|\ud83d\udcef|\ud83d\ude97"},
{"name": "Ca\u00f1as y Tapas", "city": "Barcelona", "lat": 41.412777027027026, "long": 2.2180664504504506, "category": "restaurant", "emojis": "\ud83c\udfc3|\ud83d\udc1c|\ud83d\udd07"},
{"name": "Cinesa Diagonal Mar", "city": "Barcelona", "lat": 41.40874571096488, "long": 2.214053815773297, "category": "attraction", "emojis": "\ud83c\uddf5\ud83c\udded|\ud83c\udfe5|\ud83d\udc65"},
{"name": "Museu de la Xocolata", "city": "Barcelona", "lat": 41.390604927927924, "long": 2.1809893243243246, "category": "attraction", "emojis": "\ud83c\udf6d|\ud83d\ude8c|\ud83c\uddeb\ud83c\uddee"},
{"name": "El Tragaluz", "city": "Barcelona", "lat": 41.39724247747748, "long": 2.163126702702703, "category": "restaurant", "emojis": "\ud83c\udfb5"},
{"name": "Dostrece Restaurant", "city": "Barcelona", "lat": 41.38423625225226, "long": 2.168518873873874, "category": "restaurant", "emojis": "\ud83c\udf54|\ud83d\udc4a|\ud83c\udf7a"},
{"name": "La Muscleria", "city": "Barcelona", "lat": 41.394683198198194, "long": 2.1686762522522525, "category": "restaurant", "emojis": "\ud83d\udc4c|\ud83d\udc1a"},
{"name": "Central Cafe", "city": "Barcelona", "lat": 41.387788198198194, "long": 2.1335647477477475, "category": "restaurant", "emojis": "\ud83d\udc49|\ud83c\udfc6"},
{"name": "Le Cucine Mandarosso", "city": "Barcelona", "lat": 41.3878359009009, "long": 2.177255126126126, "category": "restaurant", "emojis": "\ud83c\udde7\ud83c\uddec|\ud83d\ude1f|\ud83d\ude30"},
{"name": "Dostrece Restaurant", "city": "Barcelona", "lat": 41.382884900900905, "long": 2.1662666216216215, "category": "restaurant", "emojis": "\ud83c\udf4c\ud83c\udf69|\ud83d\udc8e|\ud83c\udf55"},
{"name": "Restaurante Italiano Rossini", "city": "Barcelona", "lat": 41.37938354954955, "long": 2.1731855225225227, "category": "restaurant", "emojis": "\ud83d\udcf1|\ud83d\ude1e"},
{"name": "Rosa Negra", "city": "Barcelona", "lat": 41.385793324324325, "long": 2.1765039009009013, "category": "restaurant", "emojis": "\ud83c\udde6\ud83c\udde9|\ud83c\udf5f|\ud83c\udfdf"},
{"name": "Ciudad Condal", "city": "Barcelona", "lat": 41.38633252252252, "long": 2.1674806756756757, "category": "restaurant", "emojis": "\ud83c\udf84|\ud83c\udde7\ud83c\uddf7|\ud83d\udd78"},
{"name": "Pla\u00e7a de Catalunya", "city": "Barcelona", "lat": 41.38747453927145, "long": 2.171762539030202, "category": "attraction", "emojis": "\ud83d\udd09|\ud83c\udff7"},
{"name": "Bar Ca\u00f1ete", "city": "Barcelona", "lat": 41.381859702702705, "long": 2.1744633513513514, "category": "restaurant", "emojis": "\ud83c\udf3f|\ud83d\udca9|\ud83d\udc0d"},
{"name": "Happy Bar & Grill Restaurant", "city": "Barcelona", "lat": 41.38642442342343, "long": 2.165558198198198, "category": "restaurant", "emojis": "\ud83c\udf59|\ud83d\ude86"},
{"name": "Luz de Gas", "city": "Barcelona", "lat": 41.393242648648645, "long": 2.1496496756756756, "category": "attraction", "emojis": "\ud83d\udd09"},
{"name": "Restaurante Bacoa", "city": "Barcelona", "lat": 41.38236084684685, "long": 2.1775506486486487, "category": "restaurant", "emojis": "\ud83c\udfa3|\ud83c\udf47"},
{"name": "Montju\u00efc Castle", "city": "Barcelona", "lat": 41.365136126126124, "long": 2.1673098018018018, "category": "attraction", "emojis": "\ud83d\ude30|\ud83c\udfe5|\ud83d\udd19"},
{"name": "Sagrada Fam\u00edlia", "city": "Barcelona", "lat": 41.40509184593957, "long": 2.1718713536993226, "category": "attraction", "emojis": "\ud83c\udfa4"},
{"name": "El Palace Hotel Barcelona 5* G.L.", "city": "Barcelona", "lat": 41.39091213386755, "long": 2.1709801373181494, "category": "accommodation", "emojis": "\ud83c\udfc6|\ud83d\ude00|\ud83d\udca1"},
{"name": "Restaurante Bacoa", "city": "Barcelona", "lat": 41.38438787387388, "long": 2.1822803783783784, "category": "restaurant", "emojis": "\ud83c\uddef\ud83c\uddf5|\ud83d\udc8e|\ud83d\udc14"},
{"name": "Maybe Barcelona", "city": "Barcelona", "lat": 41.38466664061538, "long": 2.117571968851653, "category": "attraction", "emojis": "\ud83d\udd09"},
{"name": "Centre Civic Can Deu", "city": "Barcelona", "lat": 41.38790012612613, "long": 2.129791297297297, "category": "restaurant", "emojis": "\ud83c\udf62|\ud83d\udc19|\ud83c\udfec"},
{"name": "Rosa del Raval Restaurant", "city": "Barcelona", "lat": 41.379189297297295, "long": 2.1682975495495493, "category": "restaurant", "emojis": "\ud83c\udfc6|\ud83d\udd1d"},
{"name": "ABaC Restaurant & Hotel", "city": "Barcelona", "lat": 41.41386026609538, "long": 2.1330170175577217, "category": "restaurant", "emojis": "\ud83d\udcf9"},
{"name": "Moncho's Barcelona", "city": "Barcelona", "lat": 41.397966477477475, "long": 2.1458510720720723, "category": "restaurant", "emojis": "\ud83d\udc44|\ud83d\udc1c"},
{"name": "Alsur Caf\u00e9 (Palau)", "city": "Barcelona", "lat": 41.38781167567567, "long": 2.1762529009009013, "category": "restaurant", "emojis": "\ud83c\udf0b|\ud83d\ude86"},
{"name": "Palau de la M\u00fasica Catalana", "city": "Barcelona", "lat": 41.38531352252252, "long": 2.1772340270270267, "category": "attraction", "emojis": "\ud83d\udcda|\ud83d\uddff"},
{"name": "Paco Meralgo", "city": "Barcelona", "lat": 41.38958997297297, "long": 2.1537201261261263, "category": "restaurant", "emojis": "\ud83c\udfc4"},
{"name": "La Fonda del Port Ol\u00edmpic", "city": "Barcelona", "lat": 41.38899945045045, "long": 2.1984127477477475, "category": "restaurant", "emojis": "\ud83d\udd60|\ud83d\udd11|\ud83c\udf78"},
{"name": "Euskal Etxea (Restaurant)", "city": "Barcelona", "lat": 41.3854199009009, "long": 2.183275351351351, "category": "restaurant", "emojis": "\ud83c\udfb2|\ud83d\udc67"},
{"name": "Braser\u00eda Can Xurrades", "city": "Barcelona", "lat": 41.397473972972975, "long": 2.158900153153153, "category": "restaurant", "emojis": "\ud83c\udfc4|\ud83d\udccc|\ud83c\udf7a"},
{"name": "Restaurante parrilla Alfonsina", "city": "Barcelona", "lat": 41.398646576576574, "long": 2.177722027027027, "category": "restaurant", "emojis": "\ud83d\ude2e|\ud83c\udfa7|\ud83d\udc09"},
{"name": "ABaC Restaurant & Hotel", "city": "Barcelona", "lat": 41.40845486068997, "long": 2.1377467472874514, "category": "restaurant", "emojis": "\ud83d\ude8a|\ud83c\udf64"},
{"name": "Departament d'Ensenyament", "city": "Barcelona", "lat": 41.400407622783476, "long": 2.137045712513972, "category": "poi", "emojis": "\ud83c\udf6f|\ud83d\ude4f"},
{"name": "Restaurante Nuba", "city": "Barcelona", "lat": 41.39514102702702, "long": 2.134424873873874, "category": "restaurant", "emojis": "\ud83c\udf68"},
{"name": "Jamboree", "city": "Barcelona", "lat": 41.37702029729729, "long": 2.174400099099099, "category": "attraction", "emojis": "\ud83c\udf53"},
{"name": "7 Portes", "city": "Barcelona", "lat": 41.3795342972973, "long": 2.1871938288288284, "category": "restaurant", "emojis": "\ud83c\uddf5\ud83c\uddf7|\ud83c\udf44|\ud83d\ude0e"},
{"name": "Razzmatazz", "city": "Barcelona", "lat": 41.39980374870125, "long": 2.1873904760416716, "category": "attraction", "emojis": "\ud83c\udf15|\ud83d\udc14"},
{"name": "WYSTC at Museu Nacional d'Art de Catalunya (MNAC)", "city": "Barcelona", "lat": 41.37063857784993, "long": 2.1576213707794785, "category": "poi", "emojis": "\ud83c\udfb8|\ud83c\udfe0"},
{"name": "Centre Comercial Arenas de Barcelona", "city": "Barcelona", "lat": 41.37674376995845, "long": 2.1519889728443027, "category": "attraction", "emojis": "\ud83d\udcb9|\ud83c\udde7\ud83c\uddec"},
{"name": "Braseria El Glop Restaurant", "city": "Barcelona", "lat": 41.38895354954955, "long": 2.172079351351351, "category": "restaurant", "emojis": "\ud83d\udcc4|\ud83c\udf5d|\ud83c\udfed"},
{"name": "La Venta", "city": "Barcelona", "lat": 41.414184972972976, "long": 2.1317334504504504, "category": "restaurant", "emojis": "\ud83d\udd14|\ud83d\udc9e"},
{"name": "La Tertulia S.C.P.", "city": "Barcelona", "lat": 41.39519894594595, "long": 2.204864126126126, "category": "restaurant", "emojis": "\ud83d\ude0e|\ud83c\udfc6|\ud83c\uddea\ud83c\uddf8"},
{"name": "Els Pescadors", "city": "Barcelona", "lat": 41.398184648648645, "long": 2.2062493243243244, "category": "restaurant", "emojis": "\ud83d\ude86"},
{"name": "Parc de la Ciutadella", "city": "Barcelona", "lat": 41.385424148037295, "long": 2.1906550553468045, "category": "attraction", "emojis": "\ud83c\udfe2|\ud83d\ude2e"},
{"name": "Hard Rock Cafe Barcelona", "city": "Barcelona", "lat": 41.38283484684685, "long": 2.171611675675676, "category": "restaurant", "emojis": "\ud83c\udf51"},
{"name": "Frankfurt Pedralbes", "city": "Barcelona", "lat": 41.3881031806269, "long": 2.1147757598112524, "category": "restaurant", "emojis": "\ud83d\udd28|\ud83d\udc83"},
{"name": "La Tertulia S.C.P.", "city": "Barcelona", "lat": 41.40150525225226, "long": 2.2053145765765767, "category": "restaurant", "emojis": "\ud83c\udfd9|\ud83c\udf6b|\ud83c\udf80"},
{"name": "Ca\u00f1as y Tapas", "city": "Barcelona", "lat": 41.40782207207207, "long": 2.2140123963963965, "category": "restaurant", "emojis": "\ud83c\udfa6|\ud83d\udc41"},
{"name": "Museu Nacional d'Art de Catalunya", "city": "Barcelona", "lat": 41.36551207207207, "long": 2.156272702702703, "category": "attraction", "emojis": "\ud83d\udc76"},
{"name": "Barcelona Zoo", "city": "Barcelona", "lat": 41.388850027027026, "long": 2.193048702702703, "category": "attraction", "emojis": "\ud83c\udf52|\ud83d\udc57"},
{"name": "El Petit Bangkok", "city": "Barcelona", "lat": 41.40710382882883, "long": 2.1485883513513513, "category": "restaurant", "emojis": "\ud83c\udf7c|\ud83d\ude18\ud83d\ude18|\ud83d\udd29"},
{"name": "El Tragaluz", "city": "Barcelona", "lat": 41.39521545045045, "long": 2.1622258018018017, "category": "restaurant", "emojis": "\ud83c\uddee\ud83c\uddf1|\ud83c\uddf5\ud83c\uddfc"},
{"name": "Quimet & Quimet", "city": "Barcelona", "lat": 41.3766597027027, "long": 2.1664449009009012, "category": "restaurant", "emojis": "\ud83d\udecb|\ud83d\udca3|\ud83c\udfeb"},
{"name": "Palau de la M\u00fasica Catalana", "city": "Barcelona", "lat": 41.38824145045045, "long": 2.176558351351351, "category": "attraction", "emojis": "\ud83d\udcb0|\ud83c\uddee\ud83c\uddea|\ud83d\ude97"},
{"name": "Starbucks", "city": "Barcelona", "lat": 41.38915637837838, "long": 2.1645656216216214, "category": "restaurant", "emojis": "\ud83d\udd2a"},
{"name": "Hard Rock Cafe Barcelona", "city": "Barcelona", "lat": 41.38283484684685, "long": 2.1745396036036038, "category": "restaurant", "emojis": "\ud83d\ude0a|\ud83d\udcc8"},
{"name": "Restaurante Tenorio", "city": "Barcelona", "lat": 41.39401647747748, "long": 2.162258072072072, "category": "restaurant", "emojis": "\ud83d\udcd6|\ud83c\udde6\ud83c\uddf7"},
{"name": "Casa Amatller", "city": "Barcelona", "lat": 41.39383825225225, "long": 2.1644483243243244, "category": "attraction", "emojis": "\ud83c\udfc6"},
{"name": "Samsara", "city": "Barcelona", "lat": 41.40086942342342, "long": 2.1565563243243244, "category": "restaurant", "emojis": "\ud83d\udc02"},
{"name": "federal caf\u00e9", "city": "Barcelona", "lat": 41.3777139009009, "long": 2.1606097477477477, "category": "restaurant", "emojis": "\ud83d\udc4c|\ud83d\udca8"},
{"name": "El Cangrejo Loco", "city": "Barcelona", "lat": 41.391754054054054, "long": 2.1995417477477477, "category": "restaurant", "emojis": "\ud83c\udf45|\ud83d\udcac"},
{"name": "Paso de Zebra festival", "city": "Barcelona", "lat": 41.405187724048645, "long": 2.1043273371134235, "category": "attraction", "emojis": "\ud83d\udce2|\ud83d\udcba|\ud83d\udc07"},
{"name": "Rita Blue", "city": "Barcelona", "lat": 41.38200757657658, "long": 2.170915324324324, "category": "restaurant", "emojis": "\ud83c\udf56|\ud83c\udf55"},
{"name": "Hard Rock Cafe Barcelona", "city": "Barcelona", "lat": 41.38441142342342, "long": 2.171611675675676, "category": "restaurant", "emojis": "\ud83c\uddee\ud83c\udde9|\ud83d\udd12|\ud83d\ude87"},
{"name": "Restaurante Bacoa", "city": "Barcelona", "lat": 41.387766252252256, "long": 2.1795776756756755, "category": "restaurant", "emojis": "\ud83d\udcde|\ud83d\udc25"},
{"name": "Barcelona Museum of Contemporary Art", "city": "Barcelona", "lat": 41.386118927927924, "long": 2.164839972972973, "category": "attraction", "emojis": "\ud83c\uddea\ud83c\uddf8|\ud83d\udcc8|\ud83c\uddf5\ud83c\udde6"},
{"name": "Pla\u00e7a de Catalunya", "city": "Barcelona", "lat": 41.38634841314533, "long": 2.1683841606518235, "category": "attraction", "emojis": "\ud83c\uddf1\ud83c\udde7|\ud83c\udf74|\ud83d\udd5c"},
{"name": "Aerobus", "city": "Barcelona", "lat": 41.38598883384442, "long": 2.168923284663823, "category": "poi", "emojis": "\ud83d\ude28"},
{"name": "Cervecer\u00eda Catalana", "city": "Barcelona", "lat": 41.39169632432433, "long": 2.159465648648649, "category": "restaurant", "emojis": "\ud83c\udf42|\ud83c\udf45"},
{"name": "La Barca del Salamanca", "city": "Barcelona", "lat": 41.38484007207207, "long": 2.1998661981981984, "category": "restaurant", "emojis": "\ud83d\udc65|\ud83d\ude4f|\ud83d\udd60"},
{"name": "Sagrada Fam\u00edlia", "city": "Barcelona", "lat": 41.40756932341705, "long": 2.173222705050674, "category": "attraction", "emojis": "\ud83c\udf70|\ud83d\udca5|\ud83d\udc63"},
{"name": "bar seco", "city": "Barcelona", "lat": 41.373915027027024, "long": 2.1704893783783783, "category": "restaurant", "emojis": "\ud83d\udd0a"},
{"name": "Doble Zer00 Restaurant", "city": "Barcelona", "lat": 41.38993202702703, "long": 2.1799311261261263, "category": "restaurant", "emojis": "\ud83c\udf15"},
{"name": "Starbucks", "city": "Barcelona", "lat": 41.386626648648644, "long": 2.1652272972972972, "category": "restaurant", "emojis": "\ud83c\udfeb|\ud83d\udd26|\ud83d\udc59"},
{"name": "#VMworld 2013 Europe Hands-on Labs", "city": "Barcelona", "lat": 41.354634531807875, "long": 2.1364976582226496, "category": "poi", "emojis": "\ud83c\udf7a|\ud83d\udca5|\ud83d\udcda"},
{"name": "The Sutton Club", "city": "Barcelona", "lat": 41.398705702702706, "long": 2.148533846846847, "category": "attraction", "emojis": "\ud83d\udc6e|\ud83d\udcb9"},
{"name": "Pla\u00e7a de Catalunya", "city": "Barcelona", "lat": 41.384771836568746, "long": 2.169059836327499, "category": "attraction", "emojis": "\ud83d\ude12|\ud83c\uddee\ud83c\uddf3"},
{"name": "Can Paixano", "city": "Barcelona", "lat": 41.38125754954955, "long": 2.1856732522522524, "category": "restaurant", "emojis": "\ud83c\udf4c\ud83c\udf69|\ud83d\udc4d\ud83d\udc4d"},
{"name": "Picasso Museum", "city": "Barcelona", "lat": 41.38740525225226, "long": 2.180087099099099, "category": "attraction", "emojis": "\ud83d\udc52|\ud83d\udc4b|\ud83c\udfdf"},
{"name": "Can Kenji", "city": "Barcelona", "lat": 41.40008854954955, "long": 2.169475927927928, "category": "restaurant", "emojis": "\ud83d\udc10|\ud83d\ude4f"},
{"name": "Caixaforum", "city": "Barcelona", "lat": 41.36863929729729, "long": 2.1473247477477475, "category": "attraction", "emojis": "\ud83d\udc8d"},
{"name": "El Petit Bangkok", "city": "Barcelona", "lat": 41.39989662162162, "long": 2.146336099099099, "category": "restaurant", "emojis": "\ud83d\udc76"},
{"name": "Quimet & Quimet", "city": "Barcelona", "lat": 41.37801105405405, "long": 2.1691476036036037, "category": "restaurant", "emojis": "\ud83c\uddf5\ud83c\udde6"},
{"name": "Flaires del caf\u00e8", "city": "Barcelona", "lat": 41.391268450450454, "long": 2.137669846846847, "category": "restaurant", "emojis": "\ud83d\ude14|\ud83d\udc74|\ud83c\udfee"},
{"name": "Temaki-ya", "city": "Barcelona", "lat": 41.3822509009009, "long": 2.1818095765765766, "category": "restaurant", "emojis": "\ud83d\udd0d|\ud83d\udc04"},
{"name": "Borneo", "city": "Barcelona", "lat": 41.386205900900904, "long": 2.1842043513513514, "category": "restaurant", "emojis": "\ud83d\udd74|\ud83d\udc53"},
{"name": "Los Caracoles", "city": "Barcelona", "lat": 41.38105435135135, "long": 2.1782258018018017, "category": "restaurant", "emojis": "\ud83c\udf0b"},
{"name": "federal caf\u00e9", "city": "Barcelona", "lat": 41.37726345045045, "long": 2.1633124504504506, "category": "restaurant", "emojis": "\ud83c\udf30|\ud83d\udc83|\ud83c\udde7\ud83c\uddea"},
{"name": "Mirablau", "city": "Barcelona", "lat": 41.41669467567567, "long": 2.1334765765765766, "category": "restaurant", "emojis": "\ud83c\udfd6|\ud83c\udf63"},
{"name": "Pla\u00e7a de Catalunya", "city": "Barcelona", "lat": 41.38319525999217, "long": 2.168834611102274, "category": "attraction", "emojis": "\ud83d\udc86"},
{"name": "Verdi", "city": "Barcelona", "lat": 41.40298764864865, "long": 2.159362576576577, "category": "attraction", "emojis": "\ud83c\udfc4|\ud83d\udc19"},
{"name": "Sagrada Fam\u00edlia", "city": "Barcelona", "lat": 41.402389143236874, "long": 2.171646128474097, "category": "attraction", "emojis": "\ud83d\udc8d|\ud83d\udd0a|\ud83c\udf5e"},
{"name": "Mandarin Oriental", "city": "Barcelona", "lat": 41.392082987970674, "long": 2.170647830192154, "category": "accommodation", "emojis": "\ud83d\udc46|\ud83c\udf83"},
{"name": "Els Pescadors", "city": "Barcelona", "lat": 41.40021167567567, "long": 2.2073754504504506, "category": "restaurant", "emojis": "\ud83c\uddec\ud83c\udde7"},
{"name": "La Dol\u00e7a Herm\u00ednia Restaurant", "city": "Barcelona", "lat": 41.385322648648646, "long": 2.175574126126126, "category": "restaurant", "emojis": "\ud83c\udfc4|\ud83d\udc5c|\ud83d\udc76"},
{"name": "Bar Ca\u00f1ete", "city": "Barcelona", "lat": 41.3782560990991, "long": 2.1726615495495496, "category": "restaurant", "emojis": "\ud83d\udd13|\ud83d\udc59|\ud83d\udcd6"},
{"name": "Sagrada Fam\u00edlia", "city": "Barcelona", "lat": 41.406443197290926, "long": 2.177051533879503, "category": "attraction", "emojis": "\ud83d\udd1d"},
{"name": "Parc del laberint - Jard\u00ed museu", "city": "Barcelona", "lat": 41.43555572072072, "long": 2.148302027027027, "category": "attraction", "emojis": "\ud83d\udc86"},
{"name": "Barcelona Museum of Contemporary Art", "city": "Barcelona", "lat": 41.3867946036036, "long": 2.167767900900901, "category": "attraction", "emojis": "\ud83d\udc8e|\ud83d\udc29|\ud83d\ude97"},
{"name": "Razzmatazz", "city": "Barcelona", "lat": 41.39710104599855, "long": 2.1925706562218514, "category": "attraction", "emojis": "\ud83c\udfb2|\ud83d\udc26|\ud83d\udc6e"},
{"name": "Bikini", "city": "Barcelona", "lat": 41.38634209681985, "long": 2.133630625481347, "category": "attraction", "emojis": "\ud83c\udde7\ud83c\uddf9|\ud83d\ude2f|\ud83d\udecb"},
{"name": "Foix de Sarri\u00e0", "city": "Barcelona", "lat": 41.39461162162162, "long": 2.1191856216216216, "category": "restaurant", "emojis": "\ud83c\uddf5\ud83c\udde6|\ud83c\uddf9\ud83c\udded"},
{"name": "Sagrada Fam\u00edlia", "city": "Barcelona", "lat": 41.40148824233597, "long": 2.1738983807263494, "category": "attraction", "emojis": "\ud83d\udc62|\ud83c\uddf5\ud83c\uddf8"},
{"name": "Razzmatazz", "city": "Barcelona", "lat": 41.3993532982508, "long": 2.1936967823479776, "category": "attraction", "emojis": "\ud83d\udc43|\ud83d\udc1c"},
{"name": "Starbucks", "city": "Barcelona", "lat": 41.39639812612612, "long": 2.1623268018018016, "category": "restaurant", "emojis": "\ud83c\udf7a|\ud83c\udfa4"},
{"name": "Ciudad Condal", "city": "Barcelona", "lat": 41.39016135135135, "long": 2.1692824774774775, "category": "restaurant", "emojis": "\ud83c\udf62|\ud83d\udc16"},
{"name": "Parc de la Ciutadella", "city": "Barcelona", "lat": 41.38857730119045, "long": 2.182997397689147, "category": "attraction", "emojis": "\ud83c\uddee\ud83c\uddf9|\ud83d\udd50"},
{"name": "Aire de Barcelona", "city": "Barcelona", "lat": 41.38753645045045, "long": 2.184895351351351, "category": "attraction", "emojis": "\ud83d\ude8f|\ud83d\udc69|\ud83d\ude20"},
{"name": "Kibuka", "city": "Barcelona", "lat": 41.39723252252252, "long": 2.155884648648649, "category": "restaurant", "emojis": "\ud83c\udf0d|\ud83d\uddbc|\ud83d\udcf9"},
{"name": "CDLC", "city": "Barcelona", "lat": 41.381357396396396, "long": 2.195356099099099, "category": "restaurant", "emojis": "\ud83d\udd50|\ud83d\udcbf"},
{"name": "Bar Lobo", "city": "Barcelona", "lat": 41.38638015315315, "long": 2.173280702702703, "category": "restaurant", "emojis": "\ud83d\udd77|\ud83d\ude80"},
{"name": "Rac\u00f3 de la Vila", "city": "Barcelona", "lat": 41.39437094351985, "long": 2.1969656855564477, "category": "restaurant", "emojis": "\ud83d\udd78"},
{"name": "Sagrada Fam\u00edlia", "city": "Barcelona", "lat": 41.40036211620985, "long": 2.1747992816272506, "category": "attraction", "emojis": "\ud83c\udf6b"},
{"name": "Alsur Caf\u00e9 (El Born)", "city": "Barcelona", "lat": 41.38843780180181, "long": 2.182001027027027, "category": "restaurant", "emojis": "\ud83d\udd52|\ud83d\udd27|\ud83d\udc4e"},
{"name": "Pla\u00e7a de Catalunya", "city": "Barcelona", "lat": 41.385447512244426, "long": 2.1672580345256973, "category": "attraction", "emojis": "\ud83d\udc6f|\ud83c\udf6b|\ud83c\udf31"},
{"name": "Euskal Etxea (Restaurant)", "city": "Barcelona", "lat": 41.383167648648644, "long": 2.180122198198198, "category": "restaurant", "emojis": "\ud83d\udca5|\ud83c\udf4d"},
{"name": "Up&Down Barcelona", "city": "Barcelona", "lat": 41.37693909361172, "long": 2.1170170041406773, "category": "attraction", "emojis": "\ud83d\udcac|\ud83d\ude0a|\ud83c\uddf2\ud83c\uddf8"},
{"name": "Pla\u00e7a Reial", "city": "Barcelona", "lat": 41.3792083639041, "long": 2.176183140814801, "category": "attraction", "emojis": "\ud83d\udc6a|\ud83d\udd11|\ud83c\udde7\ud83c\uddea"},
{"name": "Bar Mut", "city": "Barcelona", "lat": 41.39936302702703, "long": 2.163106801801802, "category": "restaurant", "emojis": "\ud83d\udc8e|\ud83d\udc57"},
{"name": "Mosquito", "city": "Barcelona", "lat": 41.38697054954955, "long": 2.1799173243243244, "category": "restaurant", "emojis": "\ud83c\uddf5\ud83c\udde6"},
{"name": "Bar Calders", "city": "Barcelona", "lat": 41.37531387387388, "long": 2.1619295495495496, "category": "restaurant", "emojis": "\ud83d\udebe"},
{"name": "Sagardi BCN Gotic", "city": "Barcelona", "lat": 41.381226747747746, "long": 2.182900027027027, "category": "restaurant", "emojis": "\ud83c\udf5a|\ud83c\uddf2\ud83c\uddf8|\ud83c\udf2d"},
{"name": "Le Cucine Mandarosso", "city": "Barcelona", "lat": 41.388286351351354, "long": 2.172975846846847, "category": "restaurant", "emojis": "\ud83c\udfc3|\ud83d\udca6"},
{"name": "Parada BUS 0573", "city": "Barcelona", "lat": 41.376736898695256, "long": 2.1486138946371507, "category": "poi", "emojis": "\ud83d\ude02|\ud83c\udfa6|\ud83d\ude8f"},
{"name": "El Vaso De Oro", "city": "Barcelona", "lat": 41.380746873873875, "long": 2.184445297297297, "category": "restaurant", "emojis": "\ud83d\udc25"},
{"name": "Montju\u00efc El Xalet Restaurant", "city": "Barcelona", "lat": 41.36703597297297, "long": 2.1641245495495496, "category": "restaurant", "emojis": "\ud83d\udd29"},
{"name": "7 Portes", "city": "Barcelona", "lat": 41.38516492792793, "long": 2.182689324324324, "category": "restaurant", "emojis": "\ud83c\udf39|\ud83d\udc49|\ud83d\udc9e"},
{"name": "Mirablau", "city": "Barcelona", "lat": 41.418721702702705, "long": 2.1352783783783784, "category": "restaurant", "emojis": "\ud83d\udda8|\ud83d\udecd|\ud83d\udc59"},
{"name": "Alsur Caf\u00e9 (El Born)", "city": "Barcelona", "lat": 41.390239603603604, "long": 2.1824514774774775, "category": "restaurant", "emojis": "\ud83c\udf0b|\ud83d\udcb0|\ud83d\udc45"},
{"name": "Mirablau", "city": "Barcelona", "lat": 41.41917215315315, "long": 2.133026126126126, "category": "restaurant", "emojis": "\ud83d\udc83|\ud83d\ude0d|\ud83c\udf46"},
{"name": "Sagrada Fam\u00edlia", "city": "Barcelona", "lat": 41.39923599008372, "long": 2.176375858203827, "category": "attraction", "emojis": "\ud83d\ude95|\ud83c\udf0a|\ud83d\udd2c"},
{"name": "La Piazzenza", "city": "Barcelona", "lat": 41.40333384684685, "long": 2.171334072072072, "category": "restaurant", "emojis": "\ud83d\udc14|\ud83d\udc55"},
{"name": "Starbucks", "city": "Barcelona", "lat": 41.390647801801805, "long": 2.1755656036036037, "category": "restaurant", "emojis": "\ud83d\udc42"},
{"name": "Bar Lobo", "city": "Barcelona", "lat": 41.382551324324325, "long": 2.1681005225225225, "category": "restaurant", "emojis": "\ud83d\udca7|\ud83c\udf6c|\ud83d\udc16"},
{"name": "Morro Fi", "city": "Barcelona", "lat": 41.385800477477474, "long": 2.156779576576577, "category": "restaurant", "emojis": "\ud83c\udf4d"},
{"name": "Mandarin Oriental", "city": "Barcelona", "lat": 41.39028118616888, "long": 2.1695217040660277, "category": "accommodation", "emojis": "\ud83c\udf6b|\ud83c\udf35"},
{"name": "Pla\u00e7a Reial", "city": "Barcelona", "lat": 41.378983138678876, "long": 2.1728047624364226, "category": "attraction", "emojis": "\ud83d\udc19|\ud83d\udccf|\ud83d\udd60"},
{"name": "Cervecer\u00eda Catalana", "city": "Barcelona", "lat": 41.39169632432433, "long": 2.1619431261261264, "category": "restaurant", "emojis": "\ud83c\udde6\ud83c\uddf7|\ud83c\udde6\ud83c\uddf7"},
{"name": "Alsur Caf\u00e9 (Palau)", "city": "Barcelona", "lat": 41.390063927927926, "long": 2.174000648648649, "category": "restaurant", "emojis": "\ud83c\udfe6"},
{"name": "El Tragaluz", "city": "Barcelona", "lat": 41.39791815315315, "long": 2.164703279279279, "category": "restaurant", "emojis": "\ud83d\udc43|\ud83d\udd26|\ud83d\udce6"},
{"name": "Mandarin Oriental", "city": "Barcelona", "lat": 41.39095686184455, "long": 2.1710982806426045, "category": "accommodation", "emojis": "\ud83c\udde8\ud83c\uddf3|\ud83d\udd11|\ud83c\udf83"},
{"name": "Hard Rock Cafe Barcelona", "city": "Barcelona", "lat": 41.38824025225225, "long": 2.171611675675676, "category": "restaurant", "emojis": "\ud83d\ude0d|\ud83c\udfff|\ud83c\udf4a"},
{"name": "Margarita Blue", "city": "Barcelona", "lat": 41.37457362162162, "long": 2.1777423243243246, "category": "restaurant", "emojis": "\ud83c\udf73|\ud83d\udc53|\ud83c\uddef\ud83c\uddf5"},
{"name": "Refugi 307", "city": "Barcelona", "lat": 41.3724623796799, "long": 2.1672985239669504, "category": "poi", "emojis": "\ud83c\udf36"},
{"name": "Sagrada Fam\u00edlia", "city": "Barcelona", "lat": 41.40509184593957, "long": 2.177051533879503, "category": "attraction", "emojis": "\ud83c\udde7\ud83c\uddf7|\ud83c\udfe6"},
{"name": "BEST WESTERN Hotel ALFA Aeropuerto", "city": "Barcelona", "lat": 41.331542601764376, "long": 2.1169481926136284, "category": "accommodation", "emojis": "\ud83d\udca1|\ud83c\udfaf|\ud83c\udf7c"},
{"name": "Centre Comercial Arenas de Barcelona", "city": "Barcelona", "lat": 41.377869896084576, "long": 2.1468087926641224, "category": "attraction", "emojis": "\ud83c\udfb5|\ud83c\udfac"},
{"name": "Los Caracoles", "city": "Barcelona", "lat": 41.3806039009009, "long": 2.1725951711711713, "category": "restaurant", "emojis": "\ud83d\udca8|\ud83c\uddf5\ud83c\uddfc"},
{"name": "Panader\u00eda Tallers", "city": "Barcelona", "lat": 41.38366987387388, "long": 2.165757972972973, "category": "restaurant", "emojis": "\ud83c\udde8\ud83c\uddf3"},
{"name": "Xiringuito Escrib\u00e0", "city": "Barcelona", "lat": 41.39622270270271, "long": 2.2046543243243244, "category": "restaurant", "emojis": "\ud83d\udcd6|\ud83c\uddf7\ud83c\uddfa|\ud83d\udc44"},
{"name": "El Filete Ruso", "city": "Barcelona", "lat": 41.394379801801804, "long": 2.158824927927928, "category": "restaurant", "emojis": "\ud83d\udc42|\ud83c\uddef\ud83c\uddf5"},
{"name": "Milk Bar & Bistro Restaurant", "city": "Barcelona", "lat": 41.38469537837838, "long": 2.183288153153153, "category": "restaurant", "emojis": "\ud83d\ude95|\ud83c\uddea\ud83c\uddf8"},
{"name": "Caf\u00e9 San Telmo", "city": "Barcelona", "lat": 41.39778927927928, "long": 2.1471733243243243, "category": "restaurant", "emojis": "\ud83c\udfc3|\ud83d\udc4d\ud83d\udc4d"},
{"name": "CosmoCaixa", "city": "Barcelona", "lat": 41.41452235135135, "long": 2.126381495495495, "category": "attraction", "emojis": "\ud83d\udc0c"},
{"name": "G\u00fcell Palace", "city": "Barcelona", "lat": 41.38113725225225, "long": 2.1751409009009013, "category": "attraction", "emojis": "\ud83d\udca9|\ud83d\udcef|\ud83c\udde6\ud83c\uddf6"},
{"name": "Ciudad Condal", "city": "Barcelona", "lat": 41.390837027027025, "long": 2.1663545495495495, "category": "restaurant", "emojis": "\ud83d\udcc4"},
{"name": "Ic\u00e1ria Yelmo Cineplex", "city": "Barcelona", "lat": 41.38812852252252, "long": 2.2005352522522523, "category": "attraction", "emojis": "\ud83c\udf1e"},
{"name": "Parc G\u00fcell", "city": "Barcelona", "lat": 41.41677528128871, "long": 2.151250048800674, "category": "attraction", "emojis": "\ud83d\ude2f|\ud83d\udd13"},
{"name": "Sagrada Fam\u00edlia", "city": "Barcelona", "lat": 41.40103779188552, "long": 2.171420903248872, "category": "attraction", "emojis": "\ud83d\uddd1|\ud83d\udd77|\ud83d\udc76"},
{"name": "Dostrece Restaurant", "city": "Barcelona", "lat": 41.38401102702703, "long": 2.1671675225225226, "category": "restaurant", "emojis": "\ud83c\udf21"},
{"name": "Parc de la Ciutadella", "city": "Barcelona", "lat": 41.38497369758685, "long": 2.1877271274188765, "category": "attraction", "emojis": "\ud83c\udfad|\ud83d\udc8d"},
{"name": "Rita Blue", "city": "Barcelona", "lat": 41.3786291981982, "long": 2.1749693783783783, "category": "restaurant", "emojis": "\ud83d\udce6|\ud83c\uddf5\ud83c\uddf9"},
{"name": "Flaherty\u00b4s Irish Pub", "city": "Barcelona", "lat": 41.37506962162162, "long": 2.1748621981981984, "category": "restaurant", "emojis": "\ud83d\udc26|\ud83c\udf05|\ud83d\udc2c"},
{"name": "Casa Mil\u00e0", "city": "Barcelona", "lat": 41.39418287387387, "long": 2.1582313963963964, "category": "attraction", "emojis": "\ud83c\udfd3|\ud83d\udcf7"},
{"name": "Bar Lobo", "city": "Barcelona", "lat": 41.381875648648645, "long": 2.167875297297297, "category": "restaurant", "emojis": "\ud83d\udc0d"},
{"name": "La Taguara Areperia", "city": "Barcelona", "lat": 41.384987873873875, "long": 2.179209072072072, "category": "restaurant", "emojis": "\ud83c\udfac|\ud83d\udc0d|\ud83c\udf4a"},
{"name": "La Candela", "city": "Barcelona", "lat": 41.38706774774774, "long": 2.180454576576577, "category": "restaurant", "emojis": "\ud83c\uddf2\ud83c\uddf8"},
{"name": "Flaherty\u00b4s Irish Pub", "city": "Barcelona", "lat": 41.37799754954955, "long": 2.179817153153153, "category": "restaurant", "emojis": "\ud83d\udc0c"},
{"name": "Celler Cal Marino", "city": "Barcelona", "lat": 41.37585937837838, "long": 2.165122027027027, "category": "restaurant", "emojis": "\ud83d\udc07|\ud83d\udebf|\ud83c\udf36"},
{"name": "Casa Mil\u00e0", "city": "Barcelona", "lat": 41.39485854954955, "long": 2.1656638288288286, "category": "attraction", "emojis": "\ud83d\ude87"},
{"name": "Barcel\u00f3 Raval", "city": "Barcelona", "lat": 41.37764075631965, "long": 2.1691805939550495, "category": "restaurant", "emojis": "\ud83d\udc62"},
{"name": "Meatpacking Bistro", "city": "Barcelona", "lat": 41.395286549549546, "long": 2.150624351351351, "category": "restaurant", "emojis": "\ud83c\udfed"},
{"name": "La Gavina", "city": "Barcelona", "lat": 41.37679517117117, "long": 2.184025873873874, "category": "restaurant", "emojis": "\ud83d\udc36|\ud83d\udc0d"},
{"name": "El Tinglado de Moncho's Restaurant", "city": "Barcelona", "lat": 41.38924845045045, "long": 2.1998233243243246, "category": "restaurant", "emojis": "\ud83d\udd1d|\ud83d\udce6|\ud83c\udfe2"},
{"name": "Mies van der Rohe Pavilion", "city": "Barcelona", "lat": 41.369909324324325, "long": 2.1519570270270267, "category": "attraction", "emojis": "\ud83c\udfb8|\ud83d\udc1f"},
{"name": "Barnabier", "city": "Barcelona", "lat": 41.389315027027024, "long": 2.200525927927928, "category": "restaurant", "emojis": "\ud83c\udded\ud83c\uddf0|\ud83d\ude0a|\ud83d\udd1c"},
{"name": "Verdi", "city": "Barcelona", "lat": 41.40298764864865, "long": 2.1559841981981984, "category": "attraction", "emojis": "\ud83c\uddf5\ud83c\udded|\ud83c\udf4c\ud83c\udf69"},
{"name": "Bar Mut", "city": "Barcelona", "lat": 41.40116482882883, "long": 2.163106801801802, "category": "restaurant", "emojis": "\ud83c\udfe7|\ud83c\uddf8\ud83c\uddea"},
{"name": "Palau de la M\u00fasica Catalana", "city": "Barcelona", "lat": 41.3868900990991, "long": 2.176558351351351, "category": "attraction", "emojis": "\ud83d\udd67|\ud83d\udd58"},
{"name": "Picasso Museum", "city": "Barcelona", "lat": 41.38672957657658, "long": 2.1823393513513514, "category": "attraction", "emojis": "\ud83c\udf35|\ud83c\udf72|\ud83d\udebe"},
{"name": "Bar Mut", "city": "Barcelona", "lat": 41.40048915315315, "long": 2.1619806756756756, "category": "restaurant", "emojis": "\ud83c\udf36|\ud83d\udcf9"},
{"name": "Ciudad Condal", "city": "Barcelona", "lat": 41.38926045045045, "long": 2.167705900900901, "category": "restaurant", "emojis": "\ud83c\udde9\ud83c\uddea"},
{"name": "Cervecer\u00eda Catalana", "city": "Barcelona", "lat": 41.39102064864865, "long": 2.157663846846847, "category": "restaurant", "emojis": "\ud83d\udeac|\ud83d\udd1c|\ud83d\ude1c"},
{"name": "Rosa del Raval Restaurant", "city": "Barcelona", "lat": 41.380315423423426, "long": 2.169648900900901, "category": "restaurant", "emojis": "\ud83c\udf7a|\ud83d\ude21"},
{"name": "Doble Zer00 Restaurant", "city": "Barcelona", "lat": 41.384526621621625, "long": 2.1781293243243245, "category": "restaurant", "emojis": "\ud83d\udeab"},
{"name": "Marhes Club", "city": "Barcelona", "lat": 41.380705698996096, "long": 2.1150608011194514, "category": "attraction", "emojis": "\ud83d\ude90"},
{"name": "Starbucks Coffee", "city": "Barcelona", "lat": 41.41261547747748, "long": 2.2194093783783786, "category": "restaurant", "emojis": "\ud83d\ude47|\ud83d\ude97|\ud83d\udd0a"},
{"name": "City Hall", "city": "Barcelona", "lat": 41.38907235135135, "long": 2.1689486756756757, "category": "attraction", "emojis": "\ud83c\udf6d|\ud83d\udca1|\ud83d\udeb2"},
{"name": "Centre Comercial Arenas de Barcelona", "city": "Barcelona", "lat": 41.373815842030524, "long": 2.1497367205920503, "category": "attraction", "emojis": "\ud83d\udd64|\ud83c\udfb2|\ud83d\udeab"},
{"name": "Sagrada Fam\u00edlia", "city": "Barcelona", "lat": 41.40576752161525, "long": 2.1757001825281512, "category": "attraction", "emojis": "\ud83c\udf6f|\ud83c\udfff"},
{"name": "Joan Mir\u00f3 Foundation", "city": "Barcelona", "lat": 41.36895045045045, "long": 2.1595083243243245, "category": "attraction", "emojis": "\ud83d\udd2b"},
{"name": "La Dol\u00e7a Herm\u00ednia Restaurant", "city": "Barcelona", "lat": 41.38802535135135, "long": 2.1719705225225225, "category": "restaurant", "emojis": "\ud83d\ude21|\ud83c\udfff|\ud83d\udd0c"},
{"name": "La Flauta", "city": "Barcelona", "lat": 41.383296396396396, "long": 2.158420297297297, "category": "restaurant", "emojis": "\ud83c\udfe0|\ud83d\udc23|\ud83c\udfaa"},
{"name": "Bar Calders", "city": "Barcelona", "lat": 41.377340900900904, "long": 2.1619295495495496, "category": "restaurant", "emojis": "\ud83c\udf77|\ud83c\uddf2\ud83c\uddf8"},
{"name": "Restaurante El Rac\u00f3", "city": "Barcelona", "lat": 41.387830873873874, "long": 2.164537423423423, "category": "restaurant", "emojis": "\ud83c\udfa6|\ud83d\udca3|\ud83c\udfe8"},
{"name": "Bikini", "city": "Barcelona", "lat": 41.390846601324355, "long": 2.135207202057923, "category": "attraction", "emojis": "\ud83d\udd77|\ud83d\udc44|\ud83d\udd2c"},
{"name": "Quimet & Quimet", "city": "Barcelona", "lat": 41.376434477477474, "long": 2.168471927927928, "category": "restaurant", "emojis": "\ud83c\udfec|\ud83d\udd67"},
{"name": "Akira Flats Diagonal Mar Beach Apartment", "city": "Barcelona", "lat": 41.40702631380633, "long": 2.219156076368728, "category": "accommodation", "emojis": "\ud83d\udda8|\ud83c\udfe2"},
{"name": "Los Caracoles", "city": "Barcelona", "lat": 41.37925254954955, "long": 2.1786762522522523, "category": "restaurant", "emojis": "\ud83d\udc4c|\ud83d\udcfa"},
{"name": "La Taguara Areperia", "city": "Barcelona", "lat": 41.384537423423424, "long": 2.1846144774774774, "category": "restaurant", "emojis": "\ud83d\ude2b"},
{"name": "Casa Amatller", "city": "Barcelona", "lat": 41.39271212612612, "long": 2.166024900900901, "category": "attraction", "emojis": "\ud83d\ude4f|\ud83c\udffb|\ud83c\udf47"},
{"name": "Parc G\u00fcell", "city": "Barcelona", "lat": 41.41452302903645, "long": 2.1517004992511244, "category": "attraction", "emojis": "\ud83c\uddfb\ud83c\uddea|\ud83c\uddee\ud83c\uddf1"},
{"name": "La Piazzenza", "city": "Barcelona", "lat": 41.4109915045045, "long": 2.1722349729729733, "category": "restaurant", "emojis": "\ud83d\ude1f|\ud83d\udc8e|\ud83d\udce6"},
{"name": "Bar Lobo", "city": "Barcelona", "lat": 41.3850288018018, "long": 2.1683257477477476, "category": "restaurant", "emojis": "\ud83d\udc7e|\ud83c\udde6\ud83c\uddf7"},
{"name": "Tramvia Blau", "city": "Barcelona", "lat": 41.40928504864865, "long": 2.1368756756756757, "category": "poi", "emojis": "\ud83c\udfd3|\ud83d\udce2|\ud83d\udc09"},
{"name": "Starbucks", "city": "Barcelona", "lat": 41.38189362162162, "long": 2.165535252252252, "category": "restaurant", "emojis": "\ud83c\udf2a"},
{"name": "La Venta", "city": "Barcelona", "lat": 41.417338126126126, "long": 2.1328595765765765, "category": "restaurant", "emojis": "\ud83d\udebb|\ud83d\udcc9"},
{"name": "La Flauta", "city": "Barcelona", "lat": 41.38577387387387, "long": 2.1626995765765766, "category": "restaurant", "emojis": "\ud83d\udc03|\ud83c\udf9e"},
{"name": "Picasso Museum", "city": "Barcelona", "lat": 41.38695480180181, "long": 2.1803123243243245, "category": "attraction", "emojis": "\ud83c\udf7a|\ud83c\udf72"},
{"name": "Caixaforum", "city": "Barcelona", "lat": 41.3704410990991, "long": 2.1502526756756755, "category": "attraction", "emojis": "\ud83d\udd35|\ud83d\udcb3|\ud83c\uddf2\ud83c\uddfb"},
{"name": "Carrer de Verdi", "city": "Barcelona", "lat": 41.40290475072643, "long": 2.1562930810107503, "category": "poi", "emojis": "\ud83d\udc66|\ud83c\udfdc|\ud83d\udeab"},
{"name": "Hard Rock Cafe Barcelona", "city": "Barcelona", "lat": 41.3895916036036, "long": 2.171611675675676, "category": "restaurant", "emojis": "\ud83d\uded2|\ud83c\udf34"},
{"name": "Restaurant La Poma", "city": "Barcelona", "lat": 41.386773477477476, "long": 2.1699533243243243, "category": "restaurant", "emojis": "\ud83d\udc3b|\ud83c\udde9\ud83c\uddea|\ud83d\ude20"},
{"name": "bar seco", "city": "Barcelona", "lat": 41.37256367567567, "long": 2.164408297297297, "category": "restaurant", "emojis": "\ud83d\udc4b"},
{"name": "Parc G\u00fcell", "city": "Barcelona", "lat": 41.41294645245988, "long": 2.1517004992511244, "category": "attraction", "emojis": "\ud83c\udf77|\ud83d\udcb3"},
{"name": "Margarita Blue", "city": "Barcelona", "lat": 41.37660064864865, "long": 2.1750396216216217, "category": "restaurant", "emojis": "\ud83d\udc65|\ud83c\udf63"},
{"name": "La Candela", "city": "Barcelona", "lat": 41.38684252252252, "long": 2.1795536756756757, "category": "restaurant", "emojis": "\ud83c\udf2a|\ud83c\udfee"},
{"name": "Centro de Cultura Contempor\u00e1nea de Barcelona", "city": "Barcelona", "lat": 41.381511747747744, "long": 2.1680715765765766, "category": "attraction", "emojis": "\ud83d\udc07|\ud83d\udc59"},
{"name": "Flaherty\u00b4s Irish Pub", "city": "Barcelona", "lat": 41.380700252252254, "long": 2.175763099099099, "category": "restaurant", "emojis": "\ud83d\udc0d"},
{"name": "TMB L\u00ednea 3", "city": "Barcelona", "lat": 41.38384690365655, "long": 2.133258277001128, "category": "poi", "emojis": "\ud83c\udde8\ud83c\uddf3"},
{"name": "Bar La Principal", "city": "Barcelona", "lat": 41.38286232432433, "long": 2.1636514504504505, "category": "restaurant", "emojis": "\ud83c\udfb8|\ud83c\udfc3|\ud83d\udcfa"},
{"name": "La Barca del Salamanca", "city": "Barcelona", "lat": 41.392272504504504, "long": 2.2050463783783787, "category": "restaurant", "emojis": "\ud83d\ude20"},
{"name": "Rosa del Raval Restaurant", "city": "Barcelona", "lat": 41.3854956036036, "long": 2.165594846846847, "category": "restaurant", "emojis": "\ud83c\uddeb\ud83c\uddee"},
{"name": "DiR Castillejos", "city": "Barcelona", "lat": 41.414116576576575, "long": 2.174790279279279, "category": "attraction", "emojis": "\ud83d\udcac|\ud83c\uddea\ud83c\uddfa|\ud83d\udcb6"},
{"name": "Barcelona Zoo", "city": "Barcelona", "lat": 41.384570747747745, "long": 2.1867423963963963, "category": "attraction", "emojis": "\ud83d\udd78"},
{"name": "Rembrandt", "city": "Barcelona", "lat": 41.38925945045045, "long": 2.196723351351351, "category": "restaurant", "emojis": "\ud83d\udc52|\ud83d\udc63"},
{"name": "Out of China", "city": "Barcelona", "lat": 41.389259675675675, "long": 2.1559428738738737, "category": "restaurant", "emojis": "\ud83c\udf21|\ud83c\udfb6|\ud83d\ude06"},
{"name": "Quimet & Quimet", "city": "Barcelona", "lat": 41.373281324324324, "long": 2.1666701261261263, "category": "restaurant", "emojis": "\ud83c\udf54|\ud83d\udcdb"},
{"name": "Ciudad Condal", "city": "Barcelona", "lat": 41.39173792792793, "long": 2.1692824774774775, "category": "restaurant", "emojis": "\ud83d\udcb0|\ud83c\uddf2\ud83c\uddfd"},
{"name": "Meatpacking Bistro", "city": "Barcelona", "lat": 41.39348474774774, "long": 2.1510748018018018, "category": "restaurant", "emojis": "\ud83c\uddef\ud83c\uddf4|\ud83c\udf42"},
{"name": "Milk Bar & Bistro Restaurant", "city": "Barcelona", "lat": 41.381992675675676, "long": 2.179234099099099, "category": "restaurant", "emojis": "\ud83c\udf9e|\ud83c\uddf5\ud83c\udded|\ud83d\udce2"},
{"name": "Museu de la Xocolata", "city": "Barcelona", "lat": 41.38902835135135, "long": 2.1780613963963966, "category": "attraction", "emojis": "\ud83d\udc6e|\ud83d\udc6b"},
{"name": "Kahala", "city": "Barcelona", "lat": 41.392544801801805, "long": 2.139193126126126, "category": "restaurant", "emojis": "\ud83c\uddf5\ud83c\uddf8|\ud83c\uddf2\ud83c\uddf8|\ud83d\udc76"},
{"name": "Sandwich & Friends", "city": "Barcelona", "lat": 41.382366072072074, "long": 2.1826795495495492, "category": "restaurant", "emojis": "\ud83d\udd26|\ud83d\udd12|\ud83d\ude87"},
{"name": "Milk Bar & Bistro Restaurant", "city": "Barcelona", "lat": 41.382217900900905, "long": 2.181486351351351, "category": "restaurant", "emojis": "\ud83c\udfad|\ud83d\udcad|\ud83d\ude4c"},
{"name": "Arena Madre", "city": "Barcelona", "lat": 41.392925504504504, "long": 2.162844873873874, "category": "attraction", "emojis": "\ud83d\udcbf|\ud83d\udc03|\ud83c\udfb8"},
{"name": "Parc de la Ciutadella", "city": "Barcelona", "lat": 41.39082955344271, "long": 2.189303703995453, "category": "attraction", "emojis": "\ud83d\udc0d|\ud83d\udeac|\ud83d\udc37"},
{"name": "WYSTC Message Boards", "city": "Barcelona", "lat": 41.385553030535704, "long": 2.1107960887857513, "category": "poi", "emojis": "\ud83d\udd17|\ud83d\udce7"},
{"name": "La Buena Vida", "city": "Barcelona", "lat": 41.40404615315315, "long": 2.2047643783783784, "category": "restaurant", "emojis": "\ud83d\ude15|\ud83d\udd27|\ud83d\udea7"},
{"name": "Cervecer\u00eda Catalana", "city": "Barcelona", "lat": 41.389894522522525, "long": 2.1632944774774776, "category": "restaurant", "emojis": "\ud83d\udcf1"},
{"name": "Rekons Urgell", "city": "Barcelona", "lat": 41.38368015315315, "long": 2.1616026756756757, "category": "restaurant", "emojis": "\ud83c\udf81|\ud83d\ude0d"},
{"name": "Maitea", "city": "Barcelona", "lat": 41.38995987387388, "long": 2.1477016216216214, "category": "restaurant", "emojis": "\ud83d\udd2c|\ud83c\uddf5\ud83c\udded|\ud83d\udca3"},
{"name": "Ciudad Condal", "city": "Barcelona", "lat": 41.387683873873875, "long": 2.165904099099099, "category": "restaurant", "emojis": "\ud83c\udf75|\ud83c\udfaf|\ud83c\uddee\ud83c\uddf9"},
{"name": "Cervecer\u00eda Catalana", "city": "Barcelona", "lat": 41.393723351351355, "long": 2.163970153153153, "category": "restaurant", "emojis": "\ud83c\udfa4|\ud83d\udcac"},
{"name": "Bar Lobo", "city": "Barcelona", "lat": 41.38119997297297, "long": 2.1710284504504505, "category": "restaurant", "emojis": "\ud83c\uddfb\ud83c\uddea|\ud83c\uddeb\ud83c\uddf7|\ud83c\udf77"},
{"name": "La Taula", "city": "Barcelona", "lat": 41.405879576576574, "long": 2.1392325765765765, "category": "restaurant", "emojis": "\ud83d\udc14"},
{"name": "Bikini", "city": "Barcelona", "lat": 41.39197272745048, "long": 2.134081075931797, "category": "attraction", "emojis": "\ud83d\udd2a"},
{"name": "Choquito", "city": "Barcelona", "lat": 41.38270245045045, "long": 2.174354801801802, "category": "restaurant", "emojis": "\ud83d\udc67|\ud83d\udc9e|\ud83d\udce7"},
{"name": "federal caf\u00e9", "city": "Barcelona", "lat": 41.37343462162162, "long": 2.1621863243243244, "category": "restaurant", "emojis": "\ud83d\ude0a|\ud83c\udf52"},
{"name": "G\u00fcell Palace", "city": "Barcelona", "lat": 41.378434549549546, "long": 2.1737895495495496, "category": "attraction", "emojis": "\ud83d\ude30"},
{"name": "Ic\u00e1ria Yelmo Cineplex", "city": "Barcelona", "lat": 41.3951105045045, "long": 2.201210927927928, "category": "attraction", "emojis": "\ud83d\udd2c|\ud83d\udd78"},
{"name": "Alsur Caf\u00e9 (El Born)", "city": "Barcelona", "lat": 41.38843780180181, "long": 2.177271297297297, "category": "restaurant", "emojis": "\ud83d\ude4c|\ud83d\udc59|\ud83d\udeab"},
{"name": "Els 4Gats", "city": "Barcelona", "lat": 41.384845099099095, "long": 2.176852153153153, "category": "restaurant", "emojis": "\ud83d\ude8a|\ud83c\uddf9\ud83c\udded|\ud83d\udc76"},
{"name": "Buenas Migas", "city": "Barcelona", "lat": 41.398149675675675, "long": 2.161706927927928, "category": "restaurant", "emojis": "\ud83c\udf6b|\ud83d\udd1c"},
{"name": "Dostrece Restaurant", "city": "Barcelona", "lat": 41.38423625225226, "long": 2.170545900900901, "category": "restaurant", "emojis": "\ud83d\udc26|\ud83c\udf1e"},
{"name": "Cervecer\u00eda Catalana", "city": "Barcelona", "lat": 41.393498126126126, "long": 2.1641953783783787, "category": "restaurant", "emojis": "\ud83c\udf82|\ud83c\udf55"},
{"name": "Cervecer\u00eda Jazz", "city": "Barcelona", "lat": 41.37342312612613, "long": 2.163808675675676, "category": "restaurant", "emojis": "\ud83d\udcbb"},
{"name": "Parc del Centre del Poblenou", "city": "Barcelona", "lat": 41.4084039009009, "long": 2.203579702702703, "category": "attraction", "emojis": "\ud83d\ude89|\ud83d\udd0c|\ud83d\udcef"},
{"name": "O Lusitano Distribuci\u00f3n S.C.P", "city": "Barcelona", "lat": 41.396694945945946, "long": 2.2053484504504506, "category": "restaurant", "emojis": "\ud83d\udeac|\ud83d\udc68|\ud83d\udc57"},
{"name": "Maitea", "city": "Barcelona", "lat": 41.38995987387388, "long": 2.1517556756756755, "category": "restaurant", "emojis": "\ud83c\udf31"},
{"name": "Cal Pep Restaurant", "city": "Barcelona", "lat": 41.38527835135135, "long": 2.1818344234234233, "category": "restaurant", "emojis": "\ud83d\udc1a"},
{"name": "La Paradeta", "city": "Barcelona", "lat": 41.38693567567567, "long": 2.182568648648649, "category": "restaurant", "emojis": "\ud83d\ude35|\ud83c\udf59"},
{"name": "Taller De Tapas", "city": "Barcelona", "lat": 41.38119452252252, "long": 2.182615027027027, "category": "restaurant", "emojis": "\ud83d\udc80|\ud83c\uddf2\ud83c\uddf8|\ud83c\udfe7"},
{"name": "Milk Bar & Bistro Restaurant", "city": "Barcelona", "lat": 41.38244312612613, "long": 2.178333198198198, "category": "restaurant", "emojis": "\ud83c\udf4e|\ud83d\udc1b|\ud83c\udf31"},
{"name": "\u00c1BaC", "city": "Barcelona", "lat": 41.408682494807024, "long": 2.1563467740228495, "category": "accommodation", "emojis": "\ud83d\udd74|\ud83d\udcb9|\ud83d\ude0d"},
{"name": "Cup and Cake", "city": "Barcelona", "lat": 41.3951699009009, "long": 2.1558902522522523, "category": "restaurant", "emojis": "\ud83d\udd17|\ud83c\udf6a|\ud83d\udc63"},
{"name": "Barcelona Zoo", "city": "Barcelona", "lat": 41.385696873873876, "long": 2.187418072072072, "category": "attraction", "emojis": "\ud83d\udccf"},
{"name": "The George Payne Irish Bar", "city": "Barcelona", "lat": 41.3903929009009, "long": 2.175011027027027, "category": "restaurant", "emojis": "\ud83c\udf55|\ud83d\ude24|\ud83d\ude86"},
{"name": "Doble Zer00 Restaurant", "city": "Barcelona", "lat": 41.38722932432433, "long": 2.181507702702703, "category": "restaurant", "emojis": "\ud83d\udebd"},
{"name": "Parc de la Ciutadella", "city": "Barcelona", "lat": 41.38745117506433, "long": 2.1852496499413987, "category": "attraction", "emojis": "\ud83c\uddea\ud83c\uddf8"},
{"name": "Cervecer\u00eda Catalana", "city": "Barcelona", "lat": 41.389669297297296, "long": 2.1572133963963966, "category": "restaurant", "emojis": "\ud83d\udce7"},
{"name": "Marhes Club", "city": "Barcelona", "lat": 41.37980479809519, "long": 2.1141599002185507, "category": "attraction", "emojis": "\ud83d\udc03"},
{"name": "Aerobus", "city": "Barcelona", "lat": 41.38959243744802, "long": 2.1738782396187784, "category": "poi", "emojis": "\ud83c\udfff|\ud83d\udc4f"},
{"name": "Maitea", "city": "Barcelona", "lat": 41.388383297297295, "long": 2.147926846846847, "category": "restaurant", "emojis": "\ud83c\udf64|\ud83d\ude2e"},
{"name": "Restaurante parrilla Alfonsina", "city": "Barcelona", "lat": 41.396394324324326, "long": 2.1768211261261263, "category": "restaurant", "emojis": "\ud83d\ude86|\ud83d\ude14"},
{"name": "Choquito", "city": "Barcelona", "lat": 41.38090064864865, "long": 2.1730034504504507, "category": "restaurant", "emojis": "\ud83d\udd78|\ud83c\udf0a|\ud83d\udc64"}]
